{"ok":true,"locations":[{"id":"97b178c7-d3cb-4f2a-8c87-585eb33df659","slug":"bergen-county-nj","name":"Bergen County","lng":-74.054168,"lat":40.965352,"state_code":"NJ","country_code":"US"},{"id":"73e164a3-5c62-4d2f-ae0c-7e29735fd886","slug":"houdaille-quarry-nj","name":"Houdaille Quarry","lng":-74.334787,"lat":40.710012,"state_code":"NJ","country_code":"US"},{"id":"a4b85f68-70a4-403c-a712-729b5047ccb9","slug":"bergen-hill-hudson-river-nj","name":"Bergen Hill by Hudson River","lng":-74.054281,"lat":40.710794,"state_code":"NJ","country_code":"US"},{"id":"c4704328-e6d0-4c92-87fa-aadc5a00ceb4","slug":"snake-hill-nj","name":"Snake Hill","lng":-74.089279,"lat":40.758144,"state_code":"NJ","country_code":"US"},{"id":"8e0d5e68-23fa-4254-8e0f-eb6890393274","slug":"general-area-hudson-nj","name":"General Area (Hudson/Passaic)","lng":-74.109933,"lat":40.663434,"state_code":"NJ","country_code":"US"},{"id":"b5a1b8da-c943-4a7a-9240-6df114a6976f","slug":"hoboken-opal-nj","name":"Hoboken","lng":-74.038344,"lat":40.750164,"state_code":"NJ","country_code":"US"},{"id":"d9ec652b-419a-4635-844a-0f55104268c8","slug":"hoboken-serpentine-nj","name":"Hoboken (serpentine)","lng":-74.038344,"lat":40.750164,"state_code":"NJ","country_code":"US"},{"id":"571a038b-77b3-4d4f-a087-742ffe3d981e","slug":"montville-nj","name":"Montville","lng":-74.358675,"lat":40.921995,"state_code":"NJ","country_code":"US"},{"id":"fc799b9f-836e-4d11-bcf1-8efe32c3276f","slug":"palisades-nj","name":"The Palisades","lng":-73.920221,"lat":40.950041,"state_code":"NJ","country_code":"US"},{"id":"67752445-dfe2-41af-a18e-fbc856173c93","slug":"mine-hill-feldspar-nj","name":"Mine Hill (feldspar)","lng":-74.61058,"lat":40.872944,"state_code":"NJ","country_code":"US"},{"id":"0debf010-57c0-442d-9efb-4668f5f586f2","slug":"mine-hill-bornite-nj","name":"Mine Hill (bornite)","lng":-74.604981,"lat":40.886601,"state_code":"NJ","country_code":"US"},{"id":"5ac13d95-96ba-4087-b235-3d6694f81440","slug":"hibernia-nj","name":"Hibernia","lng":-74.492788,"lat":40.944935,"state_code":"NJ","country_code":"US"},{"id":"6d6eea12-eacd-42e0-8a78-32e9ea956cb6","slug":"nolands-point-nj","name":"Nolands Point","lng":-74.614426,"lat":40.947967,"state_code":"NJ","country_code":"US"},{"id":"53d5119c-af79-4d2a-99bd-488bed38a115","slug":"morris-county-nj","name":"Morris County","lng":-74.523195,"lat":40.935992,"state_code":"NJ","country_code":"US"},{"id":"25f7338e-f303-4ab7-a501-8c04df7933cd","slug":"turkey-mountain-nj","name":"Turkey Mountain General Area","lng":-74.375567,"lat":40.939707,"state_code":"NJ","country_code":"US"},{"id":"1b276e62-3c81-447c-83ee-a7384b1ecb8a","slug":"mt-freedom-nj","name":"Mt. Freedom","lng":-74.584787,"lat":40.820739,"state_code":"NJ","country_code":"US"},{"id":"93030552-f53d-44df-9261-f00f55ae04e9","slug":"mount-hope-nj","name":"Mount Hope","lng":-74.540046,"lat":40.937156,"state_code":"NJ","country_code":"US"},{"id":"8145d7fa-3ce7-4f50-a688-2ad57bb1c1a3","slug":"stirling-nj","name":"Stirling","lng":-74.484707,"lat":40.696742,"state_code":"NJ","country_code":"US"},{"id":"63b1bcbd-39b6-4088-8079-3b1f671ba446","slug":"warren-township-nj","name":"Warren Township","lng":-74.531164,"lat":40.629779,"state_code":"NJ","country_code":"US"},{"id":"1753c739-a8c4-4500-9e7a-19e9cef45a79","slug":"haledon-nj","name":"Haledon","lng":-74.194281,"lat":40.936539,"state_code":"NJ","country_code":"US"},{"id":"cf78ec44-cbfb-4f32-a197-52933d6a0849","slug":"prospect-park-quarry-nj","name":"Prospect Park Quarry","lng":-74.17482,"lat":40.940394,"state_code":"NJ","country_code":"US"},{"id":"e676ca2f-749a-4d48-a2c0-26b9118887dc","slug":"pompton-lakes-nj","name":"Pompton Lakes","lng":-74.307109,"lat":41.005397,"state_code":"NJ","country_code":"US"},{"id":"2d87b714-9678-4c99-b5cd-6a89a93d4207","slug":"ringwood-nj","name":"Ringwood","lng":-74.269304,"lat":41.146421,"state_code":"NJ","country_code":"US"},{"id":"c499bc3b-68ba-49ec-b8c4-8ea0cf7c261d","slug":"pompton-river-nj","name":"Pompton River","lng":-74.286537,"lat":40.924223,"state_code":"NJ","country_code":"US"},{"id":"62cd1890-653e-4f9a-89bb-5041f62d8b7e","slug":"sulphur-hill-mine-nj","name":"Sulphur Hill Mine","lng":-74.733356,"lat":41.007162,"state_code":"NJ","country_code":"US"},{"id":"b19bc707-b1f6-4d8b-9807-b96f8bd2a733","slug":"franklin-nj","name":"Franklin","lng":-74.593022,"lat":41.120156,"state_code":"NJ","country_code":"US"},{"id":"09b9f65d-5a41-4ec8-ab67-61a69421f99d","slug":"franklin-minerals-nj","name":"Franklin (minerals)","lng":-74.593113,"lat":41.10078,"state_code":"NJ","country_code":"US"},{"id":"ff691cf3-09fd-44c3-9fab-1e135458d0c6","slug":"franklin-ogdensburg-sterling-nj","name":"Franklin-Ogdensburg-Sterling Hill mining district","lng":-74.605328,"lat":41.083456,"state_code":"NJ","country_code":"US"},{"id":"30e0fb2a-d7f3-420f-8d4d-812a11a31c85","slug":"franklin-furnace-nj","name":"Franklin Furnace","lng":-74.587343,"lat":41.116252,"state_code":"NJ","country_code":"US"},{"id":"a6046133-d0b6-433b-ac70-426e0abaf4f3","slug":"mine-hill-axinite-nj","name":"Mine Hill (axinite)","lng":-74.604925,"lat":40.89893,"state_code":"NJ","country_code":"US"},{"id":"4febe4ab-92f5-4ca3-9427-69a734866c7f","slug":"sparta-nj","name":"Sparta","lng":-74.674834,"lat":41.056235,"state_code":"NJ","country_code":"US"},{"id":"9e0685e5-f8f4-40c0-8c81-c86585655af4","slug":"hanover-nh","name":"Hanover","lng":-72.142749,"lat":43.735386,"state_code":"NH","country_code":"US"},{"id":"35c01340-34e4-424f-b718-c537df345dff","slug":"union-county-nj","name":"Union County","lng":-74.409133,"lat":40.66022,"state_code":"NJ","country_code":"US"},{"id":"52e27e02-98e2-457a-8907-b87c3353282b","slug":"oxford-furnace-nj","name":"Oxford Furnace mining dumps","lng":-75.012146,"lat":40.79383,"state_code":"NJ","country_code":"US"},{"id":"194c5902-2fd9-4902-bed7-d8ee0d43db2d","slug":"phillipsburg-nj","name":"Phillipsburg","lng":-75.190007,"lat":40.647258,"state_code":"NJ","country_code":"US"},{"id":"ac10aa08-df43-4fea-9c3a-2e7bf9815463","slug":"clinton-nj","name":"Clinton","lng":-74.951489,"lat":40.633097,"state_code":"NJ","country_code":"US"},{"id":"2440e454-850d-4bff-bd33-64edf23523b1","slug":"lambertville-nj","name":"Lambertville","lng":-74.91196,"lat":40.323586,"state_code":"NJ","country_code":"US"},{"id":"8e489b5f-3631-4117-99e6-f8140129fe9c","slug":"goat-hill-nj","name":"Goat Hill","lng":-74.937394,"lat":40.34578,"state_code":"NJ","country_code":"US"},{"id":"f509028b-48be-4e4e-95df-0bc26a8400a2","slug":"lambertville-quarry-nj","name":"Lambertville Quarry","lng":-74.959722,"lat":40.393056,"state_code":"NJ","country_code":"US"},{"id":"fdb5c962-523a-4187-8739-6531f2e92796","slug":"mt-gilboa-nj","name":"Mt. Gilboa","lng":-74.956193,"lat":40.389782,"state_code":"NJ","country_code":"US"},{"id":"7d4d460b-2a2c-42ed-951b-77ec1bd49e13","slug":"belle-mountain-nj","name":"Belle Mountain","lng":-74.924863,"lat":40.335977,"state_code":"NJ","country_code":"US"},{"id":"205b3436-4fd3-48f2-807c-07d4e3661cb9","slug":"sayreville-nj","name":"Sayreville","lng":-74.329792,"lat":40.43869,"state_code":"NJ","country_code":"US"},{"id":"4daca15b-5941-4bda-b6f9-c358716109e3","slug":"hopewell-nj","name":"Hopewell","lng":-74.720689,"lat":40.457794,"state_code":"NJ","country_code":"US"},{"id":"0d17eeb6-42ee-41dc-a506-291905db532f","slug":"pennington-mountain-nj","name":"Pennington Mountain","lng":-74.806315,"lat":40.361645,"state_code":"NJ","country_code":"US"},{"id":"f9e3a08d-fdfe-4da6-ad7c-0fae0541b189","slug":"rock-hill-quarry-nj","name":"Rock Hill Quarry","lng":-74.616812,"lat":40.396913,"state_code":"NJ","country_code":"US"},{"id":"3e9ee9e1-5a47-4b09-b88c-dd68bf5ad029","slug":"washington-crossing-sp-nj","name":"Washington Crossing State Park","lng":-74.864206,"lat":40.309345,"state_code":"NJ","country_code":"US"},{"id":"ad280241-5257-474c-9a21-9767c06cc1bb","slug":"long-branch-nj","name":"Long Branch","lng":-73.977186,"lat":40.304727,"state_code":"NJ","country_code":"US"},{"id":"7639feb6-873d-49c0-b332-5f2d96e9698b","slug":"m-g-mine-alabma","name":"M & G Mine","lng":-85.796884,"lat":33.379873,"state_code":"Alabma","country_code":"US"},{"id":"edbfefd2-58a7-430f-84e3-59fdfef665f1","slug":"gibson-mine-alabma","name":"Gibson Mine","lng":-85.886354,"lat":33.342021,"state_code":"Alabma","country_code":"US"},{"id":"1af611aa-70f2-41b5-a839-77ef6e0c3f36","slug":"shirley-mine-alabma","name":"Shirley Mine","lng":-86.567145,"lat":33.979381,"state_code":"Alabma","country_code":"US"},{"id":"714bc31b-3ad9-4947-8c27-ae3a3fdaf62b","slug":"pleasant-grove-road-alabma","name":"Pleasant Grove Road","lng":-85.685992,"lat":33.323598,"state_code":"Alabma","country_code":"US"},{"id":"18fbc1f2-1b87-49ec-951a-433773c80a97","slug":"buzzard-creek-alabma","name":"Buzzard Creek","lng":-85.928315,"lat":33.325114,"state_code":"Alabma","country_code":"US"},{"id":"660ccdca-1b71-4ccd-805f-ac85735218be","slug":"rockford-excavations-alabma","name":"Rockford Excavations","lng":-86.213479,"lat":32.876287,"state_code":"Alabma","country_code":"US"},{"id":"5fb5cbaf-0152-4572-b43a-53ecb43213e2","slug":"pegmatite-outcropings-alabma","name":"Pegmatite Outcropings","lng":-86.217427,"lat":32.926236,"state_code":"Alabma","country_code":"US"},{"id":"e2423bf1-bdd2-41d0-a286-eb5f7c86d35a","slug":"near-pond-mine-alabma","name":"Near Pond Mine","lng":-86.237833,"lat":32.889112,"state_code":"Alabma","country_code":"US"},{"id":"a3516308-0c26-417d-81c1-730264ec840a","slug":"millsite-tin-mine-alabma","name":"Millsite Tin Mine","lng":-86.206301,"lat":32.899736,"state_code":"Alabma","country_code":"US"},{"id":"9478fda3-cf6e-44e2-83fd-6f6967ee2ee3","slug":"bently-tin-mine-alabma","name":"Bently Tin Mine","lng":-86.246585,"lat":32.891393,"state_code":"Alabma","country_code":"US"},{"id":"60d9b02b-ca9b-4839-a85b-652d7266cae7","slug":"pond-mine-alabma","name":"Pond Mine","lng":-86.255803,"lat":32.894453,"state_code":"Alabma","country_code":"US"},{"id":"257fbe35-9c1f-4760-851d-30d401b9e1f7","slug":"lake-martin-outcrops-alabma","name":"Lake Martin Outcrops","lng":-85.896097,"lat":32.807506,"state_code":"Alabma","country_code":"US"},{"id":"e1d97a12-9da5-47fc-a3d3-bcdf6dc3651d","slug":"east-shore-lake-martin-alabma","name":"East Shore Lake Martin","lng":-85.896097,"lat":32.807506,"state_code":"Alabma","country_code":"US"},{"id":"bf910210-759a-463f-b87d-8edfbf31ce77","slug":"river-near-lake-martin-alabma","name":"River Near Lake Martin","lng":-85.891362,"lat":32.625225,"state_code":"Alabma","country_code":"US"},{"id":"7ff11990-3f5f-49c0-a157-4ce05298c327","slug":"hog-mountain-alabma","name":"Hog Mountain","lng":-85.849745,"lat":33.075936,"state_code":"Alabma","country_code":"US"},{"id":"e358e603-c7a9-4ebe-b3ff-8f48252e8fc4","slug":"gold-mines-creek-west-alabma","name":"Gold Mines Creek (West)","lng":-85.883302,"lat":33.353668,"state_code":"Alabma","country_code":"US"},{"id":"e936da72-539a-4a64-8e90-76aaa60b3a43","slug":"gold-mines-creek-east-alabma","name":"Gold Mines Creek (East)","lng":-85.882043,"lat":33.354738,"state_code":"Alabma","country_code":"US"},{"id":"aa2f8c89-0f80-44ad-a28a-14130849c4fe","slug":"bob-lee-mine-alabma","name":"Bob Lee Mine","lng":-85.871455,"lat":33.335867,"state_code":"Alabma","country_code":"US"},{"id":"a9f22ed7-807f-433c-90ce-66f275201d9d","slug":"pleasant-grove-church-alabma","name":"Pleasant Grove Church","lng":-85.901453,"lat":33.32209,"state_code":"Alabma","country_code":"US"},{"id":"4e2c610b-3d9b-48e5-b64f-261dbe19a01e","slug":"black-warrior-river-mines-pits-alabma","name":"Black Warrior River Mines & Pits","lng":-87.399426,"lat":33.278371,"state_code":"Alabma","country_code":"US"},{"id":"4c0d6c45-3f97-4660-803f-a8641ed3e281","slug":"manasquan-nj","name":"Manasquan","lng":-74.031794,"lat":40.112724,"state_code":"NJ","country_code":"US"},{"id":"f3026bfc-6395-4481-90ef-184c1f5b5126","slug":"brookwood-strip-mines-alabma","name":"Brookwood Strip Mines","lng":-87.387527,"lat":33.26145,"state_code":"Alabma","country_code":"US"},{"id":"246e61b1-23b9-4769-b1ff-045c1e82cc55","slug":"tuscaloosa-rockhounding-area-alabma","name":"Tuscaloosa Rockhounding Area","lng":-87.550775,"lat":33.085059,"state_code":"Alabma","country_code":"US"},{"id":"6b528705-0e74-41b7-857d-efe34fc0a592","slug":"tuscaloosa-rockhounding-area-petrified-wood-alabma","name":"Tuscaloosa Rockhounding Area (Petrified Wood)","lng":-87.426471,"lat":33.226676,"state_code":"Alabma","country_code":"US"},{"id":"b25730c4-5a5e-4ab1-b9c8-d8841f0d393e","slug":"skunk-creek-arizona","name":"Skunk Creek","lng":-112.127099,"lat":33.711173,"state_code":"Arizona","country_code":"US"},{"id":"5a2c89b6-2a3f-4d9d-9482-941dcc51005c","slug":"new-river-area-streams-arizona","name":"New River Area Streams","lng":-112.10474,"lat":33.919423,"state_code":"Arizona","country_code":"US"},{"id":"e73910d8-7912-4b18-a99a-45b234116041","slug":"rock-springs-digging-area-arizona","name":"Rock Springs Digging Area","lng":-112.1434,"lat":34.04839,"state_code":"Arizona","country_code":"US"},{"id":"ad25781f-2bc4-4f8d-bf21-c09b387c1d3b","slug":"agua-fria-river-gravels-arizona","name":"Agua Fria River Gravels","lng":-112.315907,"lat":33.6437,"state_code":"Arizona","country_code":"US"},{"id":"a90bb469-025c-4144-b9aa-7201dd0ab731","slug":"san-domingo-wash-arizona","name":"San Domingo Wash","lng":-112.662349,"lat":33.886975,"state_code":"Arizona","country_code":"US"},{"id":"02c2352e-5761-4dfc-b0ab-8846e3d2606c","slug":"second-peak-in-four-peaks-arizona","name":"Second Peak in Four Peaks","lng":-111.322449,"lat":33.67096,"state_code":"Arizona","country_code":"US"},{"id":"049f16d4-4d8c-4aa8-a609-202168b056e0","slug":"south-yuma-mine-arizona","name":"South Yuma Mine","lng":-111.122109,"lat":32.314749,"state_code":"Arizona","country_code":"US"},{"id":"ece89426-5ee1-486d-b697-1ee2f0292ddd","slug":"sierrita-mountain-mine-dumps-arizona","name":"Sierrita Mountain Mine Dumps","lng":-111.194978,"lat":31.877716,"state_code":"Arizona","country_code":"US"},{"id":"1e7f003c-d114-4da0-8864-e26899fd3b86","slug":"neptune-mine-near-grays-spring-arizona","name":"Neptune Mine near Grays Spring","lng":-111.208056,"lat":31.906389,"state_code":"Arizona","country_code":"US"},{"id":"68280ae9-cfab-47e9-a623-c52315005a2c","slug":"dumps-near-esperanza-mine-arizona","name":"Dumps near Esperanza Mine","lng":-111.129846,"lat":31.867028,"state_code":"Arizona","country_code":"US"},{"id":"7b984321-c7e0-478d-80f9-093486c284f5","slug":"red-rover-mine-arizona","name":"Red Rover mine","lng":-111.845171,"lat":34.010988,"state_code":"Arizona","country_code":"US"},{"id":"08d24fac-3fff-456d-8580-79d08e7631f6","slug":"hill-to-w-of-cave-creek-arizona","name":"Hill to W of Cave Creek","lng":-111.988531,"lat":33.817775,"state_code":"Arizona","country_code":"US"},{"id":"d425c4b9-0098-4f94-894a-533e013bde92","slug":"area-around-go-john-mine-arizona","name":"Area around Go John Mine","lng":-111.992997,"lat":33.825682,"state_code":"Arizona","country_code":"US"},{"id":"592305af-eb68-4956-b297-47c0a49cb60d","slug":"-4-mi-sw-of-cave-creek-town-arizona","name":"~4 mi. SW of Cave Creek town","lng":-111.997915,"lat":33.782371,"state_code":"Arizona","country_code":"US"},{"id":"26781e2e-e2c7-4569-9095-0227117fa525","slug":"seven-springs-bloody-basin-road-arizona","name":"Seven Springs-Bloody Basin Road","lng":-111.707283,"lat":34.077281,"state_code":"Arizona","country_code":"US"},{"id":"6f667d69-5f7c-4a9d-ab2b-ad5524a58916","slug":"2-mi-s-of-road-on-way-to-bartlett-reservoir-arizona","name":"2 mi. S of road on way to Bartlett Reservoir","lng":-111.752052,"lat":33.836656,"state_code":"Arizona","country_code":"US"},{"id":"caf580c9-8558-4b87-8e8d-432ede4d794a","slug":"quartz-outcrop-off-of-jeep-road-arizona","name":"Quartz outcrop off of jeep road","lng":-111.769562,"lat":33.906315,"state_code":"Arizona","country_code":"US"},{"id":"68da7276-c023-4d90-a732-32d7a17f533d","slug":"area-s-of-horseshoe-dam-arizona","name":"Area S of Horseshoe Dam","lng":-111.717598,"lat":33.965233,"state_code":"Arizona","country_code":"US"},{"id":"84e8efe8-882b-460d-853c-a7f33ad343b4","slug":"limestone-gulch-arizona","name":"Limestone Gulch","lng":-109.29158,"lat":33.076183,"state_code":"Arizona","country_code":"US"},{"id":"46b6e2a9-7493-4d9a-a2a8-b9d00c13ee51","slug":"n-of-mulligan-peak-arizona","name":"N of Mulligan Peak","lng":-109.265988,"lat":33.073571,"state_code":"Arizona","country_code":"US"},{"id":"676d6e5e-355a-46ba-b2cb-8ccf91b96037","slug":"w-of-mulligan-peak-arizona","name":"W of Mulligan Peak","lng":-109.270403,"lat":33.071715,"state_code":"Arizona","country_code":"US"},{"id":"94b0782a-5063-4c65-bc8d-72ab8cf2a245","slug":"ward-canyon-arizona","name":"Ward Canyon","lng":-109.285863,"lat":33.040103,"state_code":"Arizona","country_code":"US"},{"id":"41736d15-f4b6-44ca-a752-e485f8455b2c","slug":"mine-dumps-along-coronado-trail-arizona","name":"Mine dumps along Coronado Trail","lng":-109.378786,"lat":33.095223,"state_code":"Arizona","country_code":"US"},{"id":"0c140b14-54b6-44a8-b0ec-e986c4f70564","slug":"1-mi-n-of-old-three-way-drive-in-theater-arizona","name":"1 mi. N of old Three-Way drive-in theater","lng":-109.239667,"lat":32.961214,"state_code":"Arizona","country_code":"US"},{"id":"51cf9aa8-3d91-4e36-a79e-923fdfe23740","slug":"both-sides-of-mule-creek-road-arizona","name":"Both sides of Mule Creek Road","lng":-109.060702,"lat":33.102651,"state_code":"Arizona","country_code":"US"},{"id":"78a9956a-04f1-431c-90ad-064bcddfac1c","slug":"york-area-arizona","name":"York Area","lng":-109.212876,"lat":32.894015,"state_code":"Arizona","country_code":"US"},{"id":"ddc3bef0-8aea-481b-8c15-bb874b64c5e0","slug":"foothills-of-sunset-peak-arizona","name":"Foothills of Sunset Peak","lng":-109.267835,"lat":33.115935,"state_code":"Arizona","country_code":"US"},{"id":"9b37c2b1-741e-45fb-91f7-cb3f4f6b43bf","slug":"foothills-of-sunset-peak","name":"Foothills of Sunset Peak","lng":-109.267835,"lat":33.115935,"state_code":"AZ","country_code":"US"},{"id":"25b21d25-e0cf-4526-a646-2f549fc2ca9d","slug":"canyon-n-of-road-apache-nat-forest","name":"Canyon to N of road 1 mi. S of Apache Nat. Forest","lng":-109.373695,"lat":33.155034,"state_code":"AZ","country_code":"US"},{"id":"43069b33-2dc2-4cb1-bfa4-5a854c7de837","slug":"pegmatite-outcrops-area-roadsides","name":"In pegmatite outcrops on area roadsides","lng":-112.364391,"lat":33.984179,"state_code":"AZ","country_code":"US"},{"id":"bdbe8aea-1a2a-4d25-be27-5fe7a2531b94","slug":"morristown-to-castle-hot-springs","name":"All along both sides of road from Morristown to Castle Hot Springs","lng":-112.490983,"lat":33.953347,"state_code":"AZ","country_code":"US"},{"id":"3c76ac80-0c79-4790-b9d4-de49b5d008ae","slug":"area-around-hotel","name":"Area around hotel","lng":-112.362439,"lat":33.981524,"state_code":"AZ","country_code":"US"},{"id":"e1850a0e-2949-4274-a242-7f1a388a182b","slug":"road-along-agua-fria-river","name":"Road along Agua Fria River","lng":-112.269852,"lat":33.809798,"state_code":"AZ","country_code":"US"},{"id":"674436af-8de3-44c2-b9c4-8d60b618128f","slug":"emerald-isle-mine","name":"Emerald Isle Mine","lng":-114.19173,"lat":35.363644,"state_code":"AZ","country_code":"US"},{"id":"98db0b54-512e-47a5-9bfa-694cfc5552de","slug":"bimetal-gold-mine","name":"BiMetal Gold Mine","lng":-114.081909,"lat":35.155909,"state_code":"AZ","country_code":"US"},{"id":"8ec58474-f240-4071-be38-26ffafec1c75","slug":"kingman-feldspar-mine","name":"Kingman Feldspar Mine","lng":-114.06112,"lat":35.269609,"state_code":"AZ","country_code":"US"},{"id":"3fe2f266-1155-4e69-9541-1bb657dc36c7","slug":"15-mi-nw-of-kingsman","name":"15 mi. NW of Kingsman","lng":-114.175229,"lat":35.403312,"state_code":"AZ","country_code":"US"},{"id":"f8a18deb-80e8-4d09-a027-3a1fdb5535fe","slug":"golden-gem-vanderbilt-mines","name":"Golden Gem & Vanderbilt Mines","lng":-114.136007,"lat":35.304927,"state_code":"AZ","country_code":"US"},{"id":"7eee1736-7b5d-4095-b3e5-2629ff90eb07","slug":"mineral-park-cerbat-area","name":"Area of Mineral Park & Cerbat","lng":-114.205107,"lat":35.322685,"state_code":"AZ","country_code":"US"},{"id":"0ca16314-f240-4c25-8c74-e50d9ef5c44f","slug":"meadow-creek-pass-area","name":"Area near Meadow Creek Pass","lng":-114.183762,"lat":34.897145,"state_code":"AZ","country_code":"US"},{"id":"a894163a-5dda-4c2a-945e-0e10640f5211","slug":"steep-hill-fluorite","name":"On top of steep hill","lng":-112.763663,"lat":34.153681,"state_code":"AZ","country_code":"US"},{"id":"59320f00-4adf-4fc5-ae94-9d65a8f9ddee","slug":"old-stanton-mining-camp","name":"Area of old Stanton mining camp","lng":-112.736218,"lat":34.156873,"state_code":"AZ","country_code":"US"},{"id":"1b2d51df-18c6-44ab-858b-5c220b88f833","slug":"rich-hill-surface","name":"On surface around Rich Hill","lng":-112.710444,"lat":34.172805,"state_code":"AZ","country_code":"US"},{"id":"8a25d5ab-1b28-4416-b686-5afece52ee04","slug":"old-octave-mining-camp","name":"Area of old Octave mining camp","lng":-112.690082,"lat":34.141709,"state_code":"AZ","country_code":"US"},{"id":"b4cc810d-0926-4469-be67-7e0619ffcc59","slug":"congress-mine","name":"Congress Mine","lng":-112.853469,"lat":34.19919,"state_code":"AZ","country_code":"US"},{"id":"e6dcf685-7392-462e-9474-49e19fbe283f","slug":"burro-creek-bridge","name":"Under Burro Creek Bridge","lng":-113.443189,"lat":34.544811,"state_code":"AZ","country_code":"US"},{"id":"ee7a9360-74ad-4257-8b3d-c6dc343f250a","slug":"date-creek-area","name":"Date Creek area","lng":-113.049795,"lat":34.212639,"state_code":"AZ","country_code":"US"},{"id":"e265fe28-90c1-49fb-bad4-eae172307651","slug":"oxbow-silver-butte-mines","name":"Oxbow & Silver Butte Mines","lng":-111.353996,"lat":34.16844,"state_code":"AZ","country_code":"US"},{"id":"4b206852-65d4-44ba-86da-1b5c4c6b422f","slug":"north-creek-trail","name":"Along North Creek Trail","lng":-111.447593,"lat":34.177454,"state_code":"AZ","country_code":"US"},{"id":"636eaaec-93ec-4a2b-b86e-d40657b3480c","slug":"diamond-point-lookout","name":"Area around Diamond Point Lookout","lng":-111.193486,"lat":34.286385,"state_code":"AZ","country_code":"US"},{"id":"59f35d3c-04b8-4289-b96e-99732bc39929","slug":"ellison-creek-area","name":"Area around Ellison Creek","lng":-111.273463,"lat":34.34733,"state_code":"AZ","country_code":"US"},{"id":"edc173b7-2608-4a45-861f-8a432bc676ae","slug":"natural-bridge-area","name":"Area of Natural Bridge","lng":-111.457154,"lat":34.32068,"state_code":"AZ","country_code":"US"},{"id":"02a79aac-9f1d-4250-ad76-5b0d0400fc7f","slug":"bristol-bay","name":"Bristol Bay","lng":-158.512999,"lat":59.114273,"state_code":"AK","country_code":"US"},{"id":"91df1088-f6ea-43d4-89c4-b5a4211dc691","slug":"kujulik-bary","name":"Kujulik Bary","lng":-157.767007,"lat":56.685225,"state_code":"AK","country_code":"US"},{"id":"e35f767d-4cf2-42ad-951b-00dcfa1e7291","slug":"iliamna-lake","name":"Iliamna Lake","lng":-155.545197,"lat":59.644633,"state_code":"AK","country_code":"US"},{"id":"f53280be-772e-4342-a655-4764662910b3","slug":"lake-clark","name":"Lake Clark","lng":-154.833896,"lat":60.181693,"state_code":"AK","country_code":"US"},{"id":"57d1c802-14b8-42e0-9d04-4fd554f0ab9f","slug":"becharof-lake","name":"Becharof Lake","lng":-156.828935,"lat":58.055543,"state_code":"AK","country_code":"US"},{"id":"a4cc84e1-98cc-4313-8689-5e24866acaa3","slug":"lake-iliamna","name":"Lake Iliamna","lng":-154.789962,"lat":59.770277,"state_code":"AK","country_code":"US"},{"id":"8eb8254e-a69a-4dcb-9369-6670a54638ac","slug":"port-heiden","name":"Port Heiden","lng":-158.9732,"lat":56.840156,"state_code":"AK","country_code":"US"},{"id":"a538e834-cfc2-4171-9600-6a81694fe61f","slug":"adak-island","name":"Adak Island","lng":-176.670175,"lat":51.953056,"state_code":"AK","country_code":"US"},{"id":"d0db11ac-3fec-489b-9d30-9eb5c553beb9","slug":"atka-island","name":"Atka Island","lng":-174.334893,"lat":52.16672,"state_code":"AK","country_code":"US"},{"id":"e7189e86-aca1-4497-a963-378dfaa36242","slug":"attu-island","name":"Attu Island","lng":-173.244623,"lat":52.849409,"state_code":"AK","country_code":"US"},{"id":"a13389ce-32af-4fb4-83a9-a8340d57c6e2","slug":"kodiak-island","name":"Kodiak Island","lng":-154.702903,"lat":57.385966,"state_code":"AK","country_code":"US"},{"id":"70947e4a-9dc2-4367-b69f-4a44232755fd","slug":"sand-point","name":"Sand Point","lng":-160.502711,"lat":55.348692,"state_code":"AK","country_code":"US"},{"id":"1be09e3f-ab39-4b1a-9281-54a2bf33b18d","slug":"tanaga-island","name":"Tanaga Island","lng":-177.868296,"lat":51.846249,"state_code":"AK","country_code":"US"},{"id":"30e93752-2784-435e-8e6d-070e4da87067","slug":"unalaska-island","name":"Unalaska Island","lng":-166.550611,"lat":53.90902,"state_code":"AK","country_code":"US"},{"id":"753ce367-5751-47be-be07-75cd59e150ce","slug":"california-creek","name":"California Creek","lng":-156.733591,"lat":66.956174,"state_code":"AK","country_code":"US"},{"id":"fc3eb013-5492-456d-93cc-bcdca3a3ad1c","slug":"dahl-creek","name":"Dahl Creek","lng":-156.889281,"lat":66.955443,"state_code":"AK","country_code":"US"},{"id":"6ec74ad4-924b-46f6-9b03-442e9f6a5f36","slug":"asbestos-mountain","name":"Asbestos Mountain","lng":-156.75911,"lat":66.999875,"state_code":"AK","country_code":"US"},{"id":"682ca9de-2157-4a0d-95fa-0990ec537160","slug":"jade-creek","name":"Jade Creek","lng":-158.171252,"lat":67.164655,"state_code":"AK","country_code":"US"},{"id":"800e8e64-5c1f-4d27-886d-d51412c6d125","slug":"shungnak","name":"Shungnak","lng":-157.102019,"lat":66.883509,"state_code":"AK","country_code":"US"},{"id":"b5811b40-e9e6-4013-8d1e-8e2118cf20e0","slug":"squirrel-river","name":"Squirrel River","lng":-160.373836,"lat":67.019637,"state_code":"AK","country_code":"US"},{"id":"a30de3f1-93b8-4a3f-a15f-2de54d342bac","slug":"jade-mountains","name":"Jade Mountains","lng":-158.047462,"lat":67.199007,"state_code":"AK","country_code":"US"},{"id":"e6706f57-906c-47fa-9675-42e3fde2c0fc","slug":"point-barrow","name":"Point Barrow","lng":-156.485461,"lat":71.375652,"state_code":"AK","country_code":"US"},{"id":"f6c61e15-7865-48eb-a12b-840f47399026","slug":"kanektok-river","name":"Kanektok River","lng":-161.79439,"lat":59.785418,"state_code":"AK","country_code":"US"},{"id":"44dae4db-ecde-4319-91b1-0a4ba78589e6","slug":"togiak-river","name":"Togiak River","lng":-160.364714,"lat":59.114154,"state_code":"AK","country_code":"US"},{"id":"cbc4a15e-d8f5-4e6d-91d6-8f8918486d19","slug":"goodnews-mining-district","name":"Goodnews Mining District","lng":-161.73095,"lat":58.926029,"state_code":"AK","country_code":"US"},{"id":"a75da962-0a6a-4805-bd0b-6dddbc9c29e4","slug":"platinum","name":"Platinum","lng":-161.863543,"lat":58.664593,"state_code":"AK","country_code":"US"},{"id":"20a26134-f194-49dc-837a-45eae16a69c0","slug":"sleetmute-mining-district","name":"Sleetmute Mining District","lng":-157.166355,"lat":61.701346,"state_code":"AK","country_code":"US"},{"id":"6022e537-3a77-48d9-8637-3af0563a9933","slug":"bendeleben-mountains","name":"Bendeleben Mountains","lng":-163.589541,"lat":65.208037,"state_code":"AK","country_code":"US"},{"id":"24dd9e3a-6272-4dbf-9efb-6b91dae9c414","slug":"aggie-creek","name":"Aggie Creek","lng":-163.146962,"lat":64.911452,"state_code":"AK","country_code":"US"},{"id":"07f2d53b-330e-47aa-aa39-f2c2a0f7144b","slug":"kotzebue-sound","name":"Kotzebue Sound","lng":-162.739968,"lat":66.081241,"state_code":"AK","country_code":"US"},{"id":"07376657-c651-46d0-8379-80ebd46131fa","slug":"dime-creek","name":"Dime Creek","lng":-161.137853,"lat":65.149151,"state_code":"AK","country_code":"US"},{"id":"f281270b-0b59-4851-9a8b-20cfd52be191","slug":"gold-run","name":"Gold Run","lng":-166.254924,"lat":65.032963,"state_code":"AK","country_code":"US"},{"id":"ca14eaba-0e1a-46f1-a662-efa55e1fd6f6","slug":"york","name":"York","lng":-167.646805,"lat":65.499981,"state_code":"AK","country_code":"US"},{"id":"97d26c90-527a-4035-8090-750830e78dc3","slug":"archangel-creek","name":"Archangel Creek","lng":-149.241862,"lat":61.818261,"state_code":"AK","country_code":"US"},{"id":"3143f799-e072-4909-9ecb-5402819eaa73","slug":"craigie-creek","name":"Craigie Creek","lng":-149.344161,"lat":61.798298,"state_code":"AK","country_code":"US"},{"id":"24a0b323-5c3c-48e1-b57b-44d01bde4bf7","slug":"willow-creek","name":"Willow Creek","lng":-149.710237,"lat":61.793334,"state_code":"AK","country_code":"US"},{"id":"342080f2-617c-4256-b0ba-e47a979dc1d0","slug":"matahuska-river","name":"Matahuska River","lng":-148.453701,"lat":61.783337,"state_code":"AK","country_code":"US"},{"id":"7ea1f940-501f-4585-b95b-3863a63c93c4","slug":"fire-island","name":"Fire Island","lng":-150.209026,"lat":61.152878,"state_code":"AK","country_code":"US"},{"id":"eee9182b-ad14-4150-bbb0-8a90d4663f14","slug":"kenai-river","name":"Kenai River","lng":-150.940416,"lat":60.455989,"state_code":"AK","country_code":"US"},{"id":"7f5de1c9-aadd-422b-a0ea-3ba1049240ef","slug":"anchor-river","name":"Anchor River","lng":-151.533564,"lat":59.748891,"state_code":"AK","country_code":"US"},{"id":"20d3f8a9-fb45-47b1-8da0-66d8e7ec2a2c","slug":"haines","name":"Haines","lng":-135.724137,"lat":59.317627,"state_code":"AK","country_code":"US"},{"id":"1a35a695-36de-4e1c-9622-4b3048d949a2","slug":"admiralty-island","name":"Admiralty Island","lng":-134.633515,"lat":57.105398,"state_code":"AK","country_code":"US"},{"id":"3b903c80-1a17-419e-8c6c-1abea6c7bdac","slug":"moose-pass-hope","name":"Moose Pass and Hope Mining Districts","lng":-149.550048,"lat":60.775446,"state_code":"AK","country_code":"US"},{"id":"bb1fe722-31df-4bdd-b08c-95471579485f","slug":"crow-creek-gold-mine","name":"Crow Creek Gold Mine","lng":-149.081618,"lat":61.002758,"state_code":"AK","country_code":"US"},{"id":"82f85f15-460f-4be0-95d0-10239f172a09","slug":"salamtof-beach","name":"Salamtof Beach","lng":-151.34539,"lat":60.625965,"state_code":"AK","country_code":"US"},{"id":"38eab9e1-efca-423f-a0c0-841aa4a89078","slug":"lituya-bay","name":"Lituya Bay","lng":-137.56862,"lat":58.653471,"state_code":"AK","country_code":"US"},{"id":"33cd9e80-2a23-42fe-98a8-e4cfb11de7f6","slug":"hamilton-bay","name":"Hamilton Bay","lng":-133.818939,"lat":56.897468,"state_code":"AK","country_code":"US"},{"id":"cd0302ba-f220-4319-a0f9-59aac76b1fcc","slug":"red-bluff-bay","name":"Red Bluff Bay","lng":-134.752065,"lat":56.862568,"state_code":"AK","country_code":"US"},{"id":"84741870-5af9-4fb6-be5e-db763a8c0742","slug":"silver-bay","name":"Silver Bay","lng":-135.13221,"lat":56.985911,"state_code":"AK","country_code":"US"},{"id":"3d732992-aaae-49e9-b650-da4922739091","slug":"garnet-ledge","name":"Garnet Ledge","lng":-132.363095,"lat":56.571755,"state_code":"AK","country_code":"US"},{"id":"7165c15b-ffdb-4178-aaf6-f5654fa9d7e4","slug":"saginaw-bay","name":"Saginaw Bay","lng":-134.141695,"lat":56.870696,"state_code":"AK","country_code":"US"},{"id":"b8f850bb-329b-4910-92c8-707ef5586d68","slug":"port-houghton","name":"Port Houghton","lng":-133.31029,"lat":57.28974,"state_code":"AK","country_code":"US"},{"id":"bfc7d006-cb57-47c3-adcb-29400be024cd","slug":"unnamed-location-magnet-cove","name":"Unnamed Location (Magnet Cove area)","lng":-92.881217,"lat":34.461495,"state_code":"AR","country_code":"US"},{"id":"63ad3184-cc31-482b-87ff-1495eb8477b9","slug":"cove-creek-bridge","name":"Cove Creek Bridge","lng":-92.875162,"lat":34.456831,"state_code":"AR","country_code":"US"},{"id":"d7ad27d4-8dcf-446b-af5a-bef5e4cc3227","slug":"cove-creek-bridge-boulder","name":"Cove Creek Bridge Boulder","lng":-92.874959,"lat":34.456544,"state_code":"AR","country_code":"US"},{"id":"51f4d324-4594-420c-a147-69e00c8a262e","slug":"unnamed-melanite-location","name":"Unnamed Location (Melanite)","lng":-92.864972,"lat":34.452146,"state_code":"AR","country_code":"US"},{"id":"8a549bd2-6cc1-4ac4-89d2-408a1796b794","slug":"cove-creek-pyrite","name":"Cove Creek","lng":-92.826173,"lat":34.485665,"state_code":"AR","country_code":"US"},{"id":"4e898854-4227-490b-a98b-cf793b4116dd","slug":"near-cemetery-smoky-quartz","name":"Unnamed Location Near Cemetery","lng":-92.843247,"lat":34.452324,"state_code":"AR","country_code":"US"},{"id":"64b181fb-563f-4251-98be-de023100f737","slug":"wegner-quartz-crystal-mines","name":"Wegner Quartz Crystal Mines","lng":-93.641251,"lat":34.514303,"state_code":"AR","country_code":"US"},{"id":"cb148d52-fe78-4923-b115-c8d5fa06917a","slug":"mount-ida","name":"Mount Ida","lng":-93.633382,"lat":34.541634,"state_code":"AR","country_code":"US"},{"id":"22a85b56-079a-4bb7-872d-72964a68d516","slug":"unnamed-quarry-wavellite","name":"Unnamed Quarry (Wavellite)","lng":-93.653387,"lat":34.595441,"state_code":"AR","country_code":"US"},{"id":"c8d259b2-4192-440a-8444-0f6c1d3abdb2","slug":"crater-of-diamonds-state-park","name":"Crater of Diamonds State Park","lng":-93.670088,"lat":34.032975,"state_code":"AR","country_code":"US"},{"id":"d715468d-2445-49e2-9370-118165bccafe","slug":"unnamed-allanite-ca","name":"Unnamed Location (Allanite)","lng":-117.104118,"lat":33.386374,"state_code":"CA","country_code":"US"},{"id":"de688f05-82ea-4ff4-906f-24de2b9383f2","slug":"prairie-creek","name":"Prairie Creek","lng":-93.681774,"lat":34.03604,"state_code":"AR","country_code":"US"},{"id":"a5d9e9b7-fd4a-4727-826a-07551fc702fa","slug":"lake-gleason-south-side","name":"Lake Gleason (South Side)","lng":-93.709935,"lat":34.153583,"state_code":"AR","country_code":"US"},{"id":"d75071e9-76da-43ee-924d-4c5d937be25d","slug":"unnamed-cinnabar-location","name":"Unnamed Location (Cinnabar)","lng":-93.746653,"lat":34.161501,"state_code":"AR","country_code":"US"},{"id":"c5142240-cdd7-4e90-8675-219644a86223","slug":"silver-hollow-bluff-mine","name":"Silver Hollow Bluff Mine","lng":-92.531754,"lat":36.121251,"state_code":"AR","country_code":"US"},{"id":"c55efad9-59f7-4a8c-81ba-e98796768b19","slug":"abandoned-mines-yellville","name":"Abandoned Mines (Yellville area)","lng":-92.552934,"lat":36.130239,"state_code":"AR","country_code":"US"},{"id":"3e521a01-ab24-4ad0-b220-7ead7cee1a65","slug":"yellville-mines","name":"Yellville Mines","lng":-92.56237,"lat":36.13319,"state_code":"AR","country_code":"US"},{"id":"88e4dc3c-70d0-49ea-a361-272c42e6dccc","slug":"clabber-creek","name":"Clabber Creek","lng":-92.603158,"lat":36.158464,"state_code":"AR","country_code":"US"},{"id":"b5ac1b45-90eb-45fa-a841-6489841ee14b","slug":"wavellite-variscite-location","name":"Unnamed Location (Wavellite/Variscite)","lng":-93.33271,"lat":34.665908,"state_code":"AR","country_code":"US"},{"id":"a44bd177-d07c-4eaa-b654-02360120f017","slug":"colemans-crystal-mine","name":"Coleman’s Crystal Mine","lng":-93.072474,"lat":34.672545,"state_code":"AR","country_code":"US"},{"id":"09a4e7d2-f32f-4873-adba-8f7df6e2a029","slug":"west-mount-pyrite","name":"West Mount","lng":-93.091804,"lat":34.502605,"state_code":"AR","country_code":"US"},{"id":"b123f50d-c13c-4ee9-ad92-907bb29e34b0","slug":"rock-crystals-location","name":"Unnamed Location (Rock crystals)","lng":-93.060834,"lat":34.522988,"state_code":"AR","country_code":"US"},{"id":"a52be28f-21ad-4ff7-8921-f7b3d0370ad0","slug":"wavellite-location-2","name":"Unnamed Location (Wavellite #2)","lng":-93.326574,"lat":34.67391,"state_code":"AR","country_code":"US"},{"id":"c3bb8f55-42fe-4f95-a5ac-39316b9e1d28","slug":"uranium-columbium-location","name":"Unnamed Location (Uranium/Columbium)","lng":-92.977967,"lat":34.469188,"state_code":"AR","country_code":"US"},{"id":"dea9a8d2-1f49-49c7-bd2c-6355e35e53f1","slug":"lake-catherine-fluorite","name":"Lake Catherine (South Side)","lng":-92.977331,"lat":34.453817,"state_code":"AR","country_code":"US"},{"id":"79e86aaa-f610-4051-9224-3fcc749ba1e1","slug":"bauxite-quarries","name":"Bauxite Quarries","lng":-92.505328,"lat":34.544339,"state_code":"AR","country_code":"US"},{"id":"9c8c6648-583c-4de6-87c9-cb39c8762c19","slug":"serpentine-location-ar","name":"Unnamed Location (Serpentine)","lng":-92.908474,"lat":34.691673,"state_code":"AR","country_code":"US"},{"id":"082254d0-92d7-4710-ab1e-72b9f3d34a7e","slug":"smoky-quartz-calcite-location","name":"Unnamed Location (Smoky Quartz & Calcite)","lng":-92.782836,"lat":34.766515,"state_code":"AR","country_code":"US"},{"id":"52e4da27-443d-4815-abb8-76489762a178","slug":"crescent-city-beaches","name":"Crescent City Beaches","lng":-124.230917,"lat":41.765002,"state_code":"CA","country_code":"US"},{"id":"fa0504b8-95fd-4991-b8c4-529bbbd8c37a","slug":"diamond-creek-ca","name":"Diamond Creek","lng":-123.93523,"lat":41.955801,"state_code":"CA","country_code":"US"},{"id":"d452548e-9ce3-4c5d-8bf2-b91c6ff826b3","slug":"keystone-mine-ca","name":"Keystone Mine","lng":-123.962778,"lat":41.993056,"state_code":"CA","country_code":"US"},{"id":"2a14364e-a8b4-424e-9ee2-f3a84cd82807","slug":"shelly-monkey-creek-mines","name":"Shelly Creek & Monkey Creek Mines","lng":-123.80202,"lat":41.961765,"state_code":"CA","country_code":"US"},{"id":"79431c51-a891-469d-b2b9-673b40cc6b25","slug":"smith-river-gravels","name":"Smith River Gravels","lng":-124.159121,"lat":41.90183,"state_code":"CA","country_code":"US"},{"id":"7c91f475-7ea7-47da-a4d2-911573363775","slug":"trinity-river-gravels-ca","name":"Trinity River Gravels","lng":-123.055356,"lat":40.733827,"state_code":"CA","country_code":"US"},{"id":"30eef3c3-b946-4379-a53e-84fe0ce70ab8","slug":"woods-mine-ca","name":"Woods Mine","lng":-123.705041,"lat":40.204578,"state_code":"CA","country_code":"US"},{"id":"81f0acaf-9545-404f-947e-c28a81c0e366","slug":"horse-mt-chromite","name":"Horse Mt (Chromite)","lng":-123.730026,"lat":40.875302,"state_code":"CA","country_code":"US"},{"id":"4f1ef57a-a8e0-428e-a0bc-82ab61b1367e","slug":"horse-mt-west-epidote","name":"Horse Mt (West Side)","lng":-123.743245,"lat":40.873474,"state_code":"CA","country_code":"US"},{"id":"0be6c74b-bef0-42ac-b055-d839d2db3b5a","slug":"agate-beach-ca","name":"Agate Beach","lng":-124.139801,"lat":41.150147,"state_code":"CA","country_code":"US"},{"id":"06dc0877-3a5b-4ec0-b82c-e7f02c8a1617","slug":"trinity-river-willow-creek-jade","name":"Trinity River / Willow Creek","lng":-123.527094,"lat":40.879117,"state_code":"CA","country_code":"US"},{"id":"0bc21cdc-fef1-42cc-ba0b-25d4172fb710","slug":"agate-area-klamath","name":"Agate Area (Klamath River)","lng":-122.401752,"lat":42.00089,"state_code":"CA","country_code":"US"},{"id":"b7147650-0a8d-40d9-8f09-ffb0130784ed","slug":"happy-camp-jade-mines","name":"Happy Camp Jade Mines","lng":-123.46024,"lat":41.876563,"state_code":"CA","country_code":"US"},{"id":"2641cf46-86b8-45a5-827e-a2d1e31b81da","slug":"jenny-creek-ca","name":"Jenny Creek","lng":-122.397776,"lat":41.97692,"state_code":"CA","country_code":"US"},{"id":"cfece0e6-92d9-4441-bd4b-a5aca5c2adc3","slug":"jones-beach-ca","name":"Jones Beach","lng":-123.059877,"lat":41.639766,"state_code":"CA","country_code":"US"},{"id":"d6514630-a3b3-4297-88ff-810fe7d9b7a1","slug":"hungry-creek-ca","name":"Hungry Creek","lng":-122.754194,"lat":41.974582,"state_code":"CA","country_code":"US"},{"id":"e6979cb5-3fb3-4385-bd17-eaccc975b5a9","slug":"trinity-river-ca","name":"Trinity River","lng":-122.863465,"lat":40.693751,"state_code":"CA","country_code":"US"},{"id":"01e045ac-7e67-49ab-b047-9bb90569b779","slug":"golden-jubilee-mine","name":"Golden Jubilee Mine","lng":-122.783611,"lat":41.100556,"state_code":"CA","country_code":"US"},{"id":"aec5e621-0b44-493d-80ec-aeeb9a0a435e","slug":"coffee-creek-ca","name":"Coffee Creek","lng":-122.705082,"lat":41.083515,"state_code":"CA","country_code":"US"},{"id":"ad285fd9-4abc-4af6-ad97-ac221d184c25","slug":"area-stream-beds-rhodonite","name":"Area Stream Beds (Rhodonite nodules)","lng":-123.038922,"lat":40.863154,"state_code":"CA","country_code":"US"},{"id":"a5a7eedd-f091-4c29-8cd9-0470b36fe27d","slug":"indian-creek-gravels","name":"Indian Creek gravels","lng":-123.129877,"lat":40.865958,"state_code":"CA","country_code":"US"},{"id":"d59b0904-d684-4a93-8d02-73bb249d9f31","slug":"wonderstone-rhyolite-ca","name":"Unnamed Location (Wonderstone rhyolite)","lng":-120.78058,"lat":41.039936,"state_code":"CA","country_code":"US"},{"id":"de063f7e-722e-4f35-958a-9bbfdf88e698","slug":"deep-creek-ca","name":"Deep Creek","lng":-120.248953,"lat":41.517272,"state_code":"CA","country_code":"US"},{"id":"4ffead3c-0818-44be-b270-68711ba19a42","slug":"fandango-pass","name":"Fandango Pass","lng":-120.206778,"lat":41.802066,"state_code":"CA","country_code":"US"},{"id":"b96d9503-04ca-4125-9c64-548d267c971a","slug":"goose-lake-area","name":"Area around Goose Lake","lng":-120.425357,"lat":41.950774,"state_code":"CA","country_code":"US"},{"id":"4087dec0-43fa-4ccb-991c-2cd8eb46180e","slug":"glass-mountain","name":"Glass Mountain","lng":-121.504443,"lat":41.601534,"state_code":"CA","country_code":"US"},{"id":"9b13c62b-bd6d-4dca-90ff-bd8b69c7de1c","slug":"eel-river-gravels","name":"Eel River Gravels","lng":-123.352619,"lat":39.713953,"state_code":"CA","country_code":"US"},{"id":"c2a17096-ba98-4184-baa2-7039bb20da44","slug":"leech-lake-area","name":"Leech Lake Area","lng":-123.086825,"lat":39.917706,"state_code":"CA","country_code":"US"},{"id":"c27a091a-f318-4e94-880f-c7b5a5da1886","slug":"impassable-rock","name":"Impassable Rock","lng":-123.121621,"lat":39.53627,"state_code":"CA","country_code":"US"},{"id":"9fc76e48-af7b-4bc8-b661-046a352b7cb9","slug":"north-fork-eel-river","name":"North Fork of Eel River","lng":-123.358892,"lat":39.93546,"state_code":"CA","country_code":"US"},{"id":"c638037a-b33e-4048-abb0-2b5d366e9f47","slug":"actinolite-prisms-location","name":"Unnamed Location (Actinolite prisms)","lng":-123.097311,"lat":38.952623,"state_code":"CA","country_code":"US"},{"id":"c20fca48-e683-4096-bd6b-7bba75357110","slug":"coyote-point","name":"Coyote Point","lng":-122.320449,"lat":37.59149,"state_code":"CA","country_code":"US"},{"id":"9ff5f7be-454e-4fba-9023-0bb6372ee962","slug":"spherulitic-chert-location","name":"Unnamed Location (Spherulitic Chert)","lng":-122.50128,"lat":37.787981,"state_code":"CA","country_code":"US"},{"id":"25c6226b-8e9f-4fed-8132-bde249cd1a39","slug":"fort-point-area","name":"Fort Point Area","lng":-122.476197,"lat":37.80889,"state_code":"CA","country_code":"US"},{"id":"afb225b2-881d-4a21-85d3-011670730177","slug":"chalcedony-curtisite-location","name":"Unnamed Location (Chalcedony/Curtisite)","lng":-122.426949,"lat":37.76977,"state_code":"CA","country_code":"US"},{"id":"369b06de-1559-42b5-823a-5cec9d7c72c6","slug":"crystal-springs-reservoir","name":"Crystal Springs Reservoir","lng":-122.387386,"lat":37.547394,"state_code":"CA","country_code":"US"},{"id":"98708852-2982-424c-97c3-6b340e5ee9dd","slug":"jacolitos-canyon","name":"Jacolitos Canyon","lng":-120.32039,"lat":36.096183,"state_code":"CA","country_code":"US"},{"id":"66c20421-72dd-4b58-80a0-612899805467","slug":"aurora-mine-ca","name":"Aurora Mine (permission required)","lng":-120.674138,"lat":36.394862,"state_code":"CA","country_code":"US"},{"id":"4b0e0462-ef58-41f4-968a-cc747a086e0a","slug":"clark-valley-apatite","name":"Clark Valley","lng":-119.376411,"lat":36.751044,"state_code":"CA","country_code":"US"},{"id":"cc7e8c9c-f8c3-49cf-aeea-f9c3a49318b9","slug":"clark-valley-north-epidote","name":"Clark Valley (North Side)","lng":-119.347067,"lat":36.77288,"state_code":"CA","country_code":"US"},{"id":"9b2c2494-f22e-4dd6-a4cb-e26e747375ca","slug":"grossular-garnet-location","name":"Unnamed Location (Grossular garnet)","lng":-119.375742,"lat":36.909068,"state_code":"CA","country_code":"US"},{"id":"1fe0bade-39da-41c7-ac4d-505af70df2ac","slug":"jade-location-yosemite","name":"Unnamed Location (Jade)","lng":-120.117672,"lat":37.646349,"state_code":"CA","country_code":"US"},{"id":"6e8ad40d-ad23-4a81-9e1e-7a272f895605","slug":"purcell-griffin-mine","name":"Purcell-Griffin Mine","lng":-120.195612,"lat":37.662247,"state_code":"CA","country_code":"US"},{"id":"d32f8bc9-e763-44c5-b0a3-89e95b6b8e36","slug":"mariposite-location","name":"Unnamed Location (Mariposite)","lng":-120.212229,"lat":37.713229,"state_code":"CA","country_code":"US"},{"id":"e994cf0c-6c55-42f5-afb0-7f63635c81b3","slug":"surprise-claim","name":"Surprise Claim","lng":-120.054444,"lat":37.658333,"state_code":"CA","country_code":"US"},{"id":"4e55a44f-18b3-44e2-93ac-bbb0b866587f","slug":"shady-run-gravels","name":"Shady Run Gravels","lng":-120.742549,"lat":39.206918,"state_code":"CA","country_code":"US"},{"id":"d93f8da4-f6a6-4579-8658-dde2660e3736","slug":"wolf-creek-ca","name":"Wolf Creek","lng":-121.097933,"lat":39.074771,"state_code":"CA","country_code":"US"},{"id":"e796185a-5f0a-422b-8c1e-3f79b68819a1","slug":"chromite-uvarovite-location","name":"Unnamed Location (Chromite/Uvarovite)","lng":-121.039295,"lat":38.805339,"state_code":"CA","country_code":"US"},{"id":"74e16faa-c290-4d21-8a84-e27272bf2716","slug":"alabama-mine-ca","name":"Alabama Mine","lng":-121.157462,"lat":38.844593,"state_code":"CA","country_code":"US"},{"id":"72a986ab-3506-4a8f-8cd5-69e1c4a9c23f","slug":"coyote-creek-siderite","name":"Coyote Creek","lng":-121.578344,"lat":37.149996,"state_code":"CA","country_code":"US"},{"id":"14054dcd-300e-42e6-b179-acd828b63798","slug":"alum-rock-park","name":"Alum Rock Park","lng":-121.801919,"lat":37.395786,"state_code":"CA","country_code":"US"},{"id":"42ceaae5-276d-4743-aa8a-cdce6fea92f3","slug":"morgan-hill-creeks","name":"Morgan Hill Creeks","lng":-121.663644,"lat":37.055088,"state_code":"CA","country_code":"US"},{"id":"b30946cc-0a8d-4c6d-a7cd-361bbc738360","slug":"new-almaden-area-mines","name":"New Almaden Area Mines","lng":-121.8208,"lat":37.176006,"state_code":"CA","country_code":"US"},{"id":"5d2856f7-73b4-408f-aba6-c84703f82824","slug":"guadeloupe-creek","name":"Guadeloupe Creek","lng":-121.901284,"lat":37.208062,"state_code":"CA","country_code":"US"},{"id":"b338fe3f-d669-4af4-8766-bee367bbe04b","slug":"big-sur-jade","name":"Big Sur area","lng":-121.452329,"lat":35.893758,"state_code":"CA","country_code":"US"},{"id":"4fb721a7-abbe-4e91-aecf-e60dac49d47b","slug":"ocean-beach-jade-ca","name":"Ocean beach area (Big Sur coast)","lng":-121.127172,"lat":35.595181,"state_code":"CA","country_code":"US"},{"id":"c2d9e08e-dfe1-4a97-b1b1-cab5a53425b6","slug":"willow-creek-jade-ca","name":"Willow Creek area","lng":-121.461307,"lat":35.892158,"state_code":"CA","country_code":"US"},{"id":"ba310470-b5ae-4871-9901-0de0727d4f2e","slug":"limekiln-creek-beaches","name":"Limekiln Creek Beaches Area","lng":-121.519598,"lat":36.008745,"state_code":"CA","country_code":"US"},{"id":"ccce1ee7-9a5d-4e29-9540-8c421007d2a3","slug":"mine-dumps-aquamarine-ca","name":"Mine Dumps (San Diego Co.)","lng":-116.759115,"lat":33.23547,"state_code":"CA","country_code":"US"},{"id":"f2c5de77-da99-4c32-994b-5e2c42d8236e","slug":"unnamed-apatite-aquamarine-ca","name":"Unnamed Location (Apatite/Aquamarine)","lng":-117.069335,"lat":33.390493,"state_code":"CA","country_code":"US"},{"id":"11596fcd-0fcd-461b-b32b-02ae1c7adc56","slug":"stewart-mine-ca","name":"Stewart Mine","lng":-117.062247,"lat":33.381277,"state_code":"CA","country_code":"US"},{"id":"f25833d9-9c8b-438b-931c-a0b724e10aab","slug":"ware-mine-ca","name":"Ware Mine","lng":-116.767546,"lat":33.332872,"state_code":"CA","country_code":"US"},{"id":"5bc8c914-e72f-499c-8075-a1813bbfe496","slug":"victor-mine-ca","name":"Victor Mine","lng":-116.939199,"lat":33.264189,"state_code":"CA","country_code":"US"},{"id":"47110659-0d07-4a8e-91c5-c06d895575f2","slug":"unnamed-agate-chalcedony-ca","name":"Unnamed Location (LA County)","lng":-118.222931,"lat":34.436688,"state_code":"CA","country_code":"US"},{"id":"989944e4-1063-43a6-af76-86e48b5e285e","slug":"escondido-canyon","name":"Escondido Canyon","lng":-118.258235,"lat":34.498994,"state_code":"CA","country_code":"US"},{"id":"cf573805-a7d4-4305-8749-c8b844c4e21e","slug":"portal-ridge-rhodonite","name":"Portal Ridge Area","lng":-118.520025,"lat":34.70542,"state_code":"CA","country_code":"US"},{"id":"bf08a515-a08b-4368-ba18-016aefb5bcc5","slug":"malibu-lake-analcite","name":"Malibu Lake Area","lng":-118.749487,"lat":34.108293,"state_code":"CA","country_code":"US"},{"id":"1ddc66bd-252c-41a4-9313-afc389961268","slug":"redondo-beach-moonstone","name":"Area Near Redondo Beach","lng":-118.41245,"lat":33.88277,"state_code":"CA","country_code":"US"},{"id":"4b71d452-16b5-4d2e-80b0-0be92f7dc571","slug":"howlands-landing","name":"Howlands Landing (Catalina Island)","lng":-118.516673,"lat":33.457572,"state_code":"CA","country_code":"US"},{"id":"0f9e8528-4033-4250-9193-e422a1712eea","slug":"tick-canyon","name":"Tick Canyon","lng":-118.391581,"lat":34.426665,"state_code":"CA","country_code":"US"},{"id":"7b9a9d69-9192-4e26-83da-b85fa2b95099","slug":"rouse-hill-amazonite","name":"Rouse Hill","lng":-116.772378,"lat":33.672586,"state_code":"CA","country_code":"US"},{"id":"512858fd-05d3-4757-9c77-eaafda06489f","slug":"fire-agate-chalcedony-ca","name":"Unnamed Location (Fire Agate)","lng":-114.824086,"lat":33.507954,"state_code":"CA","country_code":"US"},{"id":"d1f081c4-89ca-4065-98ae-5d86ad7cfc84","slug":"jenson-quarry-hornblende","name":"Area Near Jenson Quarry","lng":-117.433226,"lat":34.025681,"state_code":"CA","country_code":"US"},{"id":"71e5beff-1577-4958-9ce1-84341d897f7c","slug":"old-quarry-axinite","name":"Old Quarry (Riverside)","lng":-117.415859,"lat":34.016679,"state_code":"CA","country_code":"US"},{"id":"0e9eca27-de7a-4238-bfcb-4da58b7d843c","slug":"wingate-pass","name":"Wingate Pass","lng":-117.05254,"lat":35.737183,"state_code":"CA","country_code":"US"},{"id":"435408af-24b8-4053-a4a2-e623ac3571c3","slug":"amboy-crater","name":"Amboy Crater","lng":-115.792351,"lat":34.544776,"state_code":"CA","country_code":"US"},{"id":"377caa14-8b1e-4a7c-8a65-1a1823f2eb6b","slug":"bristol-dry-lake","name":"Bristol Dry Lake","lng":-115.673888,"lat":34.462187,"state_code":"CA","country_code":"US"},{"id":"53df54d2-42ea-4ee8-8d21-a3b959d189ad","slug":"afton-canyon","name":"Afton Canyon","lng":-116.385336,"lat":35.039103,"state_code":"CA","country_code":"US"},{"id":"62fd55c9-b049-42d7-9626-bb6a6192ebc0","slug":"eagle-crags","name":"Eagle Crags","lng":-117.055217,"lat":35.414572,"state_code":"CA","country_code":"US"},{"id":"3c05d46e-85ad-4e81-a7a6-84fa824a4228","slug":"lead-pipe-spring","name":"Lead Pipe Spring Area","lng":-117.166542,"lat":35.466547,"state_code":"CA","country_code":"US"},{"id":"d6ee7265-12f3-4d87-9dbb-60d3656b685a","slug":"midway-lavic-jasper","name":"Midway Area (Lavic Jasper)","lng":-116.471429,"lat":35.032473,"state_code":"CA","country_code":"US"},{"id":"38c65cfb-26f9-451f-af94-728ccf61d983","slug":"searles-lake","name":"Searles Lake","lng":-117.329364,"lat":35.731554,"state_code":"CA","country_code":"US"},{"id":"0216b169-8408-4618-8aff-64459cca87c4","slug":"castle-butte-foothills","name":"Castle Butte Foothills","lng":-117.824655,"lat":35.049285,"state_code":"CA","country_code":"US"},{"id":"65dce0ac-0c14-4d01-9ef3-b6461ecc1d2d","slug":"little-acorn-mine","name":"Little Acorn Mine","lng":-118.5,"lat":35.716667,"state_code":"CA","country_code":"US"},{"id":"2ba87ebf-2e3e-4eb3-b992-9bb8dd4f0786","slug":"pine-tree-canyon-barite","name":"Pine Tree Canyon","lng":-118.086643,"lat":35.230894,"state_code":"CA","country_code":"US"},{"id":"cbc3d950-86c0-48af-9621-db1b94404e64","slug":"horse-canyon-agate-beds","name":"Horse Canyon Agate Beds","lng":-118.289119,"lat":35.194286,"state_code":"CA","country_code":"US"},{"id":"87e404cd-411c-495c-bcb3-ff09473ad61c","slug":"el-paso-mts","name":"El Paso Mountains","lng":-117.815936,"lat":35.437586,"state_code":"CA","country_code":"US"},{"id":"34875472-8383-4441-89f4-faad9a29ad22","slug":"gem-hill","name":"Gem Hill","lng":-118.221817,"lat":34.924904,"state_code":"CA","country_code":"US"},{"id":"f631e1ed-b9f8-4c6e-956b-05d3d92f27a7","slug":"nipomo-area","name":"Nipomo Area","lng":-120.452996,"lat":35.035072,"state_code":"CA","country_code":"US"},{"id":"99edfcf2-6c4b-40c0-a040-fa656302acd3","slug":"paso-robles-jadeite","name":"Paso Robles Area","lng":-120.627394,"lat":35.63795,"state_code":"CA","country_code":"US"},{"id":"726bd3a1-f5d7-40d5-af22-919b2152066a","slug":"ocean-beaches-ca-jade","name":"Ocean Beaches (Central Coast)","lng":-120.865026,"lat":35.383254,"state_code":"CA","country_code":"US"},{"id":"724c4309-23a1-4557-a3d2-421d4b126a7d","slug":"san-simeon-moonstone","name":"San Simeon Beaches","lng":-121.183315,"lat":35.642136,"state_code":"CA","country_code":"US"},{"id":"9a263476-81b1-4e05-8b57-73206f5375d6","slug":"sugarloaf-ruby-mtns","name":"Sugarloaf & Ruby Mountains","lng":-106.072194,"lat":38.760154,"state_code":"CO","country_code":"US"},{"id":"c5874264-5ae2-45a8-b15c-f14dd5c5cae4","slug":"mount-antero","name":"Summit of Mount Antero","lng":-106.246671,"lat":38.673821,"state_code":"CO","country_code":"US"},{"id":"c83696e1-e9e7-4d28-affb-b1229c08ead6","slug":"chalk-creek-sapphire","name":"Chalk Creek gravels","lng":-106.227834,"lat":38.713806,"state_code":"CO","country_code":"US"},{"id":"6d6445e7-5b16-462a-92a4-54eeee516c13","slug":"sedalia-copper-mine","name":"Sedalia Copper Mine","lng":-106.0306,"lat":38.6036,"state_code":"CO","country_code":"US"},{"id":"57051aee-e81f-4a33-8d7e-2405fde6a0cf","slug":"old-simpson-quarry-ct","name":"Old Simpson Quarry","lng":-72.619508,"lat":41.635739,"state_code":"CT","country_code":"US"},{"id":"86f67a55-e9ed-4a01-ada3-76c8b6857918","slug":"calumet-iron-mine","name":"Calumet Iron Mine","lng":-106.00026,"lat":38.633337,"state_code":"CO","country_code":"US"},{"id":"5b6cf25a-4e5b-42aa-9091-e2635e274582","slug":"wigwam-creek","name":"Wigwam Creek","lng":-105.3387,"lat":39.248687,"state_code":"CO","country_code":"US"},{"id":"f6922627-40f2-4b46-8237-dcfa00aa0404","slug":"unnamed-fluorite-gold-co","name":"Unnamed Area (Jefferson Co.)","lng":-105.320742,"lat":39.617131,"state_code":"CO","country_code":"US"},{"id":"2287489a-2f4b-447c-bf83-fa6756cf7fcc","slug":"table-mountains","name":"Table Mountains (North and South)","lng":-105.200943,"lat":39.773985,"state_code":"CO","country_code":"US"},{"id":"4063bb1c-1166-458e-bfee-dd5ff1eaddb8","slug":"centennial-cone","name":"Centennial Cone","lng":-105.360747,"lat":39.755422,"state_code":"CO","country_code":"US"},{"id":"c264d6bb-2cac-4479-b161-9d148c3ce093","slug":"italian-mountain-lapis","name":"Italian Mountain","lng":-106.762422,"lat":38.944249,"state_code":"CO","country_code":"US"},{"id":"11c29e58-953e-4dc0-969f-95e5e24609cd","slug":"cement-creek-rd","name":"Cement Creek Rd.","lng":-106.769938,"lat":38.931201,"state_code":"CO","country_code":"US"},{"id":"5966db26-89a8-4b41-8726-d6633fe95ba7","slug":"colorado-yule-marble","name":"Unnamed Area (Yule Marble)","lng":-107.26985,"lat":39.122698,"state_code":"CO","country_code":"US"},{"id":"62344b23-b650-4529-b6d7-9f14b1185f3d","slug":"quartz-creek-co","name":"Quartz Creek","lng":-106.667927,"lat":38.517407,"state_code":"CO","country_code":"US"},{"id":"34902d63-d4e4-4a72-8a5c-11e724cf5097","slug":"gunnison-gold-belt","name":"Gunnison Gold Belt Mines","lng":-107.092475,"lat":38.307772,"state_code":"CO","country_code":"US"},{"id":"06be79ed-f044-4dbb-8eb7-4efe571bc0f7","slug":"specimen-mountain","name":"Specimen Mountain","lng":-105.808412,"lat":40.442759,"state_code":"CO","country_code":"US"},{"id":"3eda6ae7-c152-445c-9c0d-83a13527c667","slug":"crystal-mountain-co","name":"Crystal Mountain","lng":-105.411371,"lat":40.541783,"state_code":"CO","country_code":"US"},{"id":"58e379a1-d637-42bb-9336-1d51922ec289","slug":"diamond-peak-co","name":"Diamond Peak","lng":-105.55936,"lat":40.980197,"state_code":"CO","country_code":"US"},{"id":"b5f876a2-22eb-4134-bf74-c977f48e988e","slug":"howes-gulch-mines","name":"Howes Gulch Mines","lng":-105.225,"lat":40.59111,"state_code":"CO","country_code":"US"},{"id":"c21f0f74-ab21-4261-bcef-b790b637c378","slug":"wisdom-ranch","name":"Wisdom Ranch","lng":-105.36444,"lat":40.59778,"state_code":"CO","country_code":"US"},{"id":"5ef3a51a-8844-47fb-b411-526367620873","slug":"austin-bluffs","name":"Austin Bluffs","lng":-104.7973,"lat":38.907151,"state_code":"CO","country_code":"US"},{"id":"e8e8b392-2ed6-49e8-be66-1919ea8ef66e","slug":"sentinel-specimen-rock","name":"Sentinel Rock and Specimen Rock","lng":-104.91777,"lat":38.80464,"state_code":"CO","country_code":"US"},{"id":"f747b68b-2646-45cd-a9c9-973bba6cdded","slug":"unnamed-mine-dump-zircon","name":"Unnamed Mine Dump (Zircon)","lng":-104.897852,"lat":38.820381,"state_code":"CO","country_code":"US"},{"id":"dc9babaa-d2f8-47d3-a0cd-efd538d6e9a2","slug":"cook-mountain-amazonite","name":"Cook Mountain (southern side)","lng":-104.917644,"lat":38.760655,"state_code":"CO","country_code":"US"},{"id":"583f728c-1176-4f08-9073-cd407935805d","slug":"zircon-fluorite-co","name":"Unnamed Area (Zircon/Fluorite)","lng":-104.90516,"lat":38.752717,"state_code":"CO","country_code":"US"},{"id":"d7d143f6-0185-4828-8093-bac7fae4d909","slug":"willow-creek-amethyst-co","name":"Willow Creek (permission required)","lng":-106.929236,"lat":37.869965,"state_code":"CO","country_code":"US"},{"id":"09421f0f-42bd-420f-b3e9-87d9409ea4c2","slug":"willow-creek-turquoise","name":"Willow Creek West Fork stream bed","lng":-106.927488,"lat":37.868355,"state_code":"CO","country_code":"US"},{"id":"44fc799c-a695-40a6-9d33-fd60d2dc9e6a","slug":"wolf-creek-stream-bed","name":"Wolf Creek Stream Bed","lng":-106.820292,"lat":37.487272,"state_code":"CO","country_code":"US"},{"id":"aceac221-933e-4647-a41e-180e50f44f5c","slug":"wolf-creek-pass","name":"Wolf Creek Pass","lng":-106.889473,"lat":37.451401,"state_code":"CO","country_code":"US"},{"id":"b73ad061-3572-4b68-80d2-6f28ac6dd8c1","slug":"barkhamsted-ct","name":"Barkhamsted","lng":-73.008408,"lat":41.939041,"state_code":"CT","country_code":"US"},{"id":"f764301a-b780-4075-a716-66935f2c995e","slug":"cornwall-ct","name":"Cornwall","lng":-73.36921,"lat":41.846696,"state_code":"CT","country_code":"US"},{"id":"7c28d7dc-8a06-4959-bc25-bd1fff39ec62","slug":"litchfield-ct","name":"Litchfield","lng":-73.218506,"lat":41.721888,"state_code":"CT","country_code":"US"},{"id":"e226c353-4755-44ac-b9bd-b48b6a3f6a8c","slug":"bantam-lake-ct","name":"Bantam Lake","lng":-73.231849,"lat":41.686607,"state_code":"CT","country_code":"US"},{"id":"dc78ee59-e0a1-4442-b7ce-f6e4cec05939","slug":"roebling-mine-ct","name":"Roebling Mine","lng":-73.434851,"lat":41.65615,"state_code":"CT","country_code":"US"},{"id":"3e5d7562-5f67-4dbb-a5d9-733ea9e7aadd","slug":"old-iron-mine-ct","name":"Old Iron Mine","lng":-73.338687,"lat":41.557512,"state_code":"CT","country_code":"US"},{"id":"2719a93a-79ee-47b6-9fc8-6c5d359352bd","slug":"torrington-ct","name":"Torrington","lng":-73.11039,"lat":41.8572,"state_code":"CT","country_code":"US"},{"id":"03fcbf37-1470-4734-b916-f26bbb949121","slug":"bristol-copper-mine-ct","name":"Bristol Copper Mine","lng":-72.92351,"lat":41.718762,"state_code":"CT","country_code":"US"},{"id":"b1af4a8a-4530-4996-802b-f8767ab788b0","slug":"canton-ct","name":"Canton","lng":-72.905264,"lat":41.839434,"state_code":"CT","country_code":"US"},{"id":"77da54df-17c0-4eca-9330-4ac2ff6001ce","slug":"east-granby-quarry-ct","name":"East Granby Quarry","lng":-72.739986,"lat":41.936107,"state_code":"CT","country_code":"US"},{"id":"7d3449d9-315b-41c8-ae0c-d35adbd4b01f","slug":"farmington-ct","name":"Farmington","lng":-72.84638,"lat":41.714635,"state_code":"CT","country_code":"US"},{"id":"2407206b-dc7f-48eb-ae66-326131832653","slug":"glastonbury-ct","name":"Glastonbury","lng":-72.558852,"lat":41.683824,"state_code":"CT","country_code":"US"},{"id":"bc160961-d94b-47c7-b850-970b1c555c13","slug":"hales-brook-quarries-ct","name":"Hale’s Brook Quarries","lng":-72.578435,"lat":41.633219,"state_code":"CT","country_code":"US"},{"id":"aac1d89b-a26f-43f7-8ec7-3431f3147f8a","slug":"simsbury-mine-ct","name":"Simsbury Mine","lng":-72.745003,"lat":41.962123,"state_code":"CT","country_code":"US"},{"id":"f0a7b5b1-419c-4385-ab88-61b0dff4d66f","slug":"meriden-ct","name":"Meriden","lng":-72.79591,"lat":41.559708,"state_code":"CT","country_code":"US"},{"id":"b657fb58-1a1b-4fd2-be3c-ddb92322c75d","slug":"union-ct","name":"Union","lng":-72.133234,"lat":41.991905,"state_code":"CT","country_code":"US"},{"id":"7febe41b-d12d-449c-8852-fa4f15fde1c7","slug":"rockville-ct","name":"Rockville","lng":-72.394742,"lat":41.867431,"state_code":"CT","country_code":"US"},{"id":"08682a33-4ccd-4240-8404-57e535f1fd2e","slug":"stafford-ct","name":"Stafford","lng":-72.32729,"lat":41.5796,"state_code":"CT","country_code":"US"},{"id":"8eea1f1b-325d-4871-9d2c-83c16c11ff6a","slug":"tolland-ct","name":"Tolland","lng":-72.377542,"lat":41.86044,"state_code":"CT","country_code":"US"},{"id":"752082fa-c283-46cc-997f-fff2b7aaab0d","slug":"vernon-ct","name":"Vernon","lng":-72.444335,"lat":41.818074,"state_code":"CT","country_code":"US"},{"id":"e990dde3-49e5-446a-a1f6-38852e720ee8","slug":"bridgewater-ct","name":"Bridgewater","lng":-73.341016,"lat":41.562968,"state_code":"CT","country_code":"US"},{"id":"776b25b7-4628-4637-8f77-e0d583102850","slug":"danbury-ct","name":"Danbury","lng":-73.473356,"lat":41.352195,"state_code":"CT","country_code":"US"},{"id":"b0a8bf0d-f008-4f01-bea6-7c806a3b2fed","slug":"greenwich-ct","name":"Greenwich","lng":-73.638131,"lat":41.104634,"state_code":"CT","country_code":"US"},{"id":"2b66599a-37de-44f0-8194-df1aaaa59596","slug":"lanes-mine-ct","name":"Lane’s Mine","lng":-73.239378,"lat":41.353056,"state_code":"CT","country_code":"US"},{"id":"74b8ccda-ec16-412b-a0ee-89d6a2baf1fd","slug":"redding-ct","name":"Redding","lng":-73.404788,"lat":41.305406,"state_code":"CT","country_code":"US"},{"id":"714219b8-9062-45ca-b009-c1f9308e6669","slug":"aldrich-park-ct","name":"Aldrich Park","lng":-73.470359,"lat":41.300835,"state_code":"CT","country_code":"US"},{"id":"ac2365ae-8559-4cd9-9bd2-3f5bb4f6b50e","slug":"long-hill-mine-ct","name":"Long Hill Mine","lng":-73.226422,"lat":41.288856,"state_code":"CT","country_code":"US"},{"id":"e27c589d-8c3c-469d-b30e-4342f98d5014","slug":"wilton-ct","name":"Wilton","lng":-73.426336,"lat":41.234861,"state_code":"CT","country_code":"US"},{"id":"257f104f-89fb-43bc-b608-b07aa8da913d","slug":"bethany-ct","name":"Bethany","lng":-72.977431,"lat":41.46478,"state_code":"CT","country_code":"US"},{"id":"bcfd1452-9664-44dc-897f-6e3662f0b4b0","slug":"cinque-quarry-ct","name":"Cinque Quarry","lng":-72.865278,"lat":41.301111,"state_code":"CT","country_code":"US"},{"id":"3bc30948-c85e-48f4-aac3-ee68b4c5c101","slug":"guilford-east-haven-ct","name":"Guilford & East Haven","lng":-72.746087,"lat":41.302024,"state_code":"CT","country_code":"US"},{"id":"f2d10b40-b59e-427b-bf78-803ae12a2e4c","slug":"mt-carmel-ct","name":"Mt. Carmel","lng":-72.884153,"lat":41.428144,"state_code":"CT","country_code":"US"},{"id":"78264f9e-3716-460a-a109-64424da9177c","slug":"hubbard-park-ct","name":"Hubbard Park","lng":-72.835882,"lat":41.54941,"state_code":"CT","country_code":"US"},{"id":"e57b8bfd-44b7-4389-9ca4-6661509a9dda","slug":"pine-rock-quarry-ct","name":"Pine Rock Quarry","lng":-72.951217,"lat":41.338103,"state_code":"CT","country_code":"US"},{"id":"b2cedc14-65f9-4887-b8ab-540ce7783aef","slug":"lamberts-mine-ct","name":"Lamberts Mine","lng":-72.982786,"lat":41.306285,"state_code":"CT","country_code":"US"},{"id":"075805b4-4b13-4da1-acfd-262d0ae78ee7","slug":"new-haven-traprock-quarry-ct","name":"New Haven Traprock Quarry","lng":-72.792152,"lat":41.340605,"state_code":"CT","country_code":"US"},{"id":"5313d899-da42-496c-a943-9123e7ab51b7","slug":"slocum-prospect-ct","name":"Slocum Prospect","lng":-72.471111,"lat":41.532222,"state_code":"CT","country_code":"US"},{"id":"f06728fb-862d-4821-96d9-b1bd55149751","slug":"gillette-quarry-ct","name":"Gillette Quarry","lng":-72.51123,"lat":41.492584,"state_code":"CT","country_code":"US"},{"id":"4f518876-cc45-4e57-b745-7dfcab3b5db8","slug":"middletown-ct","name":"Middletown","lng":-72.640432,"lat":41.578389,"state_code":"CT","country_code":"US"},{"id":"4d361453-e9b1-479d-831e-a95b22fbac0c","slug":"riverside-quarry-ct","name":"Riverside Quarry","lng":-72.603333,"lat":41.557778,"state_code":"CT","country_code":"US"},{"id":"09d497d6-6422-4930-91c9-0da43af6dea5","slug":"white-rocks-quarry-ct","name":"White Rocks Quarry","lng":-72.600278,"lat":41.553889,"state_code":"CT","country_code":"US"},{"id":"79478d46-5a69-474f-aaae-545b1d40629a","slug":"peltons-quarry-ct","name":"Pelton’s Quarry","lng":-72.576667,"lat":41.601111,"state_code":"CT","country_code":"US"},{"id":"48c0350e-bdae-4978-91d3-6aa914ff9f4f","slug":"collins-hill-ct","name":"Collins Hill","lng":-72.591596,"lat":41.588269,"state_code":"CT","country_code":"US"},{"id":"5eb74180-ff6d-4a0d-9f1d-be6412d501f8","slug":"walden-gem-quarry-ct","name":"Walden Gem Quarry","lng":-72.596111,"lat":41.618889,"state_code":"CT","country_code":"US"},{"id":"70b370c0-adec-4550-8245-93dfc82033e4","slug":"new-london-ct","name":"New London","lng":-72.019094,"lat":41.381341,"state_code":"CT","country_code":"US"},{"id":"1bbdb3ae-ef8f-442b-8179-829c4c38baaa","slug":"norwich-ct","name":"Norwich","lng":-72.067899,"lat":41.546834,"state_code":"CT","country_code":"US"},{"id":"2495637d-707d-4308-bbc5-219ed8fe5797","slug":"plum-bank-beach-ct","name":"Plum Bank Beach","lng":-72.390043,"lat":41.264774,"state_code":"CT","country_code":"US"},{"id":"2695cf33-1211-4ff2-b31d-94e60b258aef","slug":"cape-henlopen-de","name":"Cape Henlopen","lng":-75.089482,"lat":38.797202,"state_code":"DE","country_code":"US"},{"id":"7fefe07c-ed92-4c18-971c-eec4879daab6","slug":"laurel-de","name":"Laurel","lng":-75.57662,"lat":38.530139,"state_code":"DE","country_code":"US"},{"id":"9d6ebef7-ea8d-49b7-9d6d-8e512ab7d8a7","slug":"hoopes-reservoir-de","name":"Hoopes Reservoir","lng":-75.625464,"lat":39.785486,"state_code":"DE","country_code":"US"},{"id":"920552e0-4b64-418f-8a88-f61681de1c79","slug":"deauville-beach-de","name":"Deauville Beach","lng":-75.076413,"lat":38.722883,"state_code":"DE","country_code":"US"},{"id":"6a79f304-3163-4dc2-8062-4c6a1bd0461d","slug":"fowler-beach-de","name":"Fowler Beach","lng":-75.267821,"lat":38.880324,"state_code":"DE","country_code":"US"},{"id":"de71b033-67fb-4170-9d58-b6fb7dab5165","slug":"chesapeake-delaware-canal","name":"Chesapeake & Delaware Canal","lng":-75.589809,"lat":39.558454,"state_code":"DE","country_code":"US"},{"id":"4f6170ec-13c7-4e13-96ac-f7cb0f02cc41","slug":"pepper-creek-de","name":"Pepper Creek","lng":-75.246794,"lat":38.525877,"state_code":"DE","country_code":"US"},{"id":"e1096eb0-2687-4346-adfd-b817b92f2f79","slug":"coursey-pond-de","name":"Coursey Pond","lng":-75.51738,"lat":38.989499,"state_code":"DE","country_code":"US"},{"id":"b2940713-a3e8-4eb2-b792-25db01a02b5e","slug":"killen-pond-de","name":"Killen Pond","lng":-75.537796,"lat":38.982533,"state_code":"DE","country_code":"US"},{"id":"2c3e6931-7c5a-4a68-9fe2-f8ed59758e85","slug":"brandywine-springs-de","name":"Near Brandywine Springs State Park","lng":-75.576813,"lat":39.808716,"state_code":"DE","country_code":"US"},{"id":"1d8b6268-e89d-4529-97e5-3da2cf47f676","slug":"bradford-county-fl","name":"Bradford County","lng":-82.482177,"lat":28.819082,"state_code":"FL","country_code":"US"},{"id":"956347e0-2db8-45f4-ab18-dfce41fe0d44","slug":"crystal-river-fl","name":"Crystal River","lng":-82.635154,"lat":28.964204,"state_code":"FL","country_code":"US"},{"id":"a5926bbe-7f60-40d6-ba84-4004419f5347","slug":"brooksville-fl","name":"Brooksville","lng":-82.425455,"lat":28.574504,"state_code":"FL","country_code":"US"},{"id":"99ba5b06-5a92-4b12-a904-ab9aeedcb1dc","slug":"unnamed-coral-fl-1","name":"Unnamed Area (Agatized Coral #1)","lng":-82.480844,"lat":27.888909,"state_code":"FL","country_code":"US"},{"id":"7b37ae83-5012-4c3f-9b57-e6fe2382987c","slug":"unnamed-coral-fl-2","name":"Unnamed Area (Agatized Coral #2)","lng":-82.480831,"lat":27.886168,"state_code":"FL","country_code":"US"},{"id":"abc6b1a7-fc83-48cc-8aa6-fac216cc13bd","slug":"hillsborough-river-fl","name":"Hillsborough River","lng":-82.381081,"lat":28.032089,"state_code":"FL","country_code":"US"},{"id":"cd40bc7a-fdda-4ea2-8f33-9f2dc6e7ae49","slug":"gulf-beaches-fl","name":"Gulf Beaches","lng":-82.471129,"lat":27.122886,"state_code":"FL","country_code":"US"},{"id":"e73ec488-23e1-4fe4-aa2e-94233fed5b5c","slug":"englewood-beach-fl","name":"Englewood Beach","lng":-82.361444,"lat":26.924196,"state_code":"FL","country_code":"US"},{"id":"e510abea-6e5e-49ba-886e-6239444b5073","slug":"pasco-county-fl","name":"Pasco County","lng":-82.455558,"lat":28.364559,"state_code":"FL","country_code":"US"},{"id":"e2bfd6e4-25e7-4122-9244-416c357ed034","slug":"flor-a-mar-fl","name":"Flor-a-Mar","lng":-82.747869,"lat":28.233789,"state_code":"FL","country_code":"US"},{"id":"4f57d076-444d-4453-b598-eb0727123722","slug":"caledesi-causeway-fl","name":"Caledesi Causeway Banks","lng":-82.808868,"lat":28.057785,"state_code":"FL","country_code":"US"},{"id":"f2f22bb5-e845-4dc7-85a5-26a5aca9b3b6","slug":"dunedin-fl","name":"Dunedin","lng":-82.833873,"lat":28.066611,"state_code":"FL","country_code":"US"},{"id":"37723bf3-8fb0-43b5-a8c3-f299d16df001","slug":"pinellas-hillsborough-beaches-fl","name":"Pinellas & Hillsborough Beaches","lng":-82.77925,"lat":27.774032,"state_code":"FL","country_code":"US"},{"id":"c1535bda-679d-437a-9ce8-aae1ed169c5f","slug":"polk-county-quarries-fl","name":"Polk County Quarries","lng":-81.506701,"lat":27.911605,"state_code":"FL","country_code":"US"},{"id":"f370a6b3-7859-461f-94d5-be8a23b34200","slug":"lakeland-fl","name":"Lakeland","lng":-81.886862,"lat":28.123539,"state_code":"FL","country_code":"US"},{"id":"14eca2aa-8b60-4cd8-b28d-d7452032aea8","slug":"fort-myers-beach-fl","name":"Fort Myers Beach","lng":-81.839527,"lat":26.395809,"state_code":"FL","country_code":"US"},{"id":"d0c2dc5b-f8e9-4b31-b40f-e9e029ae9972","slug":"gulf-beaches-south-fl","name":"Gulf Beaches (South)","lng":-81.74028,"lat":25.941111,"state_code":"FL","country_code":"US"},{"id":"d4a9c69c-85f5-48c5-b7e1-091bd8a6c6d3","slug":"key-largo-fl","name":"Key Largo","lng":-80.422844,"lat":25.110095,"state_code":"FL","country_code":"US"},{"id":"a6171420-8aaf-4dfc-842e-8be07b413e2a","slug":"miami-quarries-fl","name":"Miami Quarries","lng":-80.490924,"lat":25.703255,"state_code":"FL","country_code":"US"},{"id":"4e52ef06-aa70-4dcf-93a2-c6729ff215b3","slug":"blowing-rocks-preserve-fl","name":"Blowing Rocks Preserve","lng":-80.087356,"lat":26.983917,"state_code":"FL","country_code":"US"},{"id":"44fac38b-e6d9-4d0b-aef1-a241626ba851","slug":"marion-county-quarries-fl","name":"Marion County Quarries","lng":-82.149654,"lat":29.2491,"state_code":"FL","country_code":"US"},{"id":"294dd4b1-c985-423f-8692-21b1964fba92","slug":"alachua-county-quarries-fl","name":"Alachua County Quarries","lng":-82.56264,"lat":29.674511,"state_code":"FL","country_code":"US"},{"id":"8a8e841d-edf9-492a-a6fa-841cb6c35961","slug":"sumter-county-quarries-fl","name":"Sumter County Quarries","lng":-82.047159,"lat":28.767596,"state_code":"FL","country_code":"US"},{"id":"9f51abec-f636-4b49-9abd-790aa70822a7","slug":"lawtey-highland-mine-fl","name":"Lawtey Highland Mine","lng":-82.051278,"lat":30.05303,"state_code":"FL","country_code":"US"},{"id":"22d7c52a-e61d-4e7a-9f32-0b6763baf027","slug":"skinner-mine-fl","name":"Skinner Mine","lng":-81.553443,"lat":30.338365,"state_code":"FL","country_code":"US"},{"id":"a5efd8cf-efcf-49cf-af0b-e1146ba1c6dd","slug":"unnamed-agatized-coral-fl","name":"Unnamed Area (Agatized Coral)","lng":-82.862835,"lat":30.438757,"state_code":"FL","country_code":"US"},{"id":"83d4a3f3-7779-4720-9505-ca80a27468f7","slug":"stephen-foster-state-park-fl","name":"Stephen Foster State Park","lng":-82.763991,"lat":30.331978,"state_code":"FL","country_code":"US"},{"id":"d027247b-4a85-4a15-8bbc-06f3beb9809a","slug":"suwannee-river-fl","name":"Suwannee River","lng":-82.798236,"lat":30.343143,"state_code":"FL","country_code":"US"},{"id":"1cab2265-137f-45ec-a1e9-91bfa09f2aac","slug":"cross-florida-barge-canal","name":"Cross Florida Barge Canal","lng":-81.717532,"lat":29.551994,"state_code":"FL","country_code":"US"},{"id":"ca320994-d71d-4ccc-8671-a2dfdf19915a","slug":"suwannee-river-north-fl","name":"Suwannee River (North)","lng":-82.962659,"lat":29.992552,"state_code":"FL","country_code":"US"},{"id":"ec1e29ca-7bd6-42e8-8ff8-4a677530e157","slug":"st-johns-county-fl","name":"St. Johns County Area","lng":-81.268463,"lat":29.869592,"state_code":"FL","country_code":"US"},{"id":"61bb7bf8-500f-4167-b410-c347432bc60e","slug":"unnamed-silicified-wood-fl","name":"Unnamed Area (Silicified Wood)","lng":-84.434882,"lat":30.68863,"state_code":"FL","country_code":"US"},{"id":"1c7ded11-5d53-49cf-ad06-396d40b37baa","slug":"quincy-area-fl","name":"Quincy Area","lng":-84.556566,"lat":30.676585,"state_code":"FL","country_code":"US"},{"id":"683497fe-5d15-4df6-806b-51a80103a75c","slug":"jackson-county-fl","name":"Jackson County Area","lng":-85.259089,"lat":30.805071,"state_code":"FL","country_code":"US"},{"id":"18c4abfe-1055-4666-91b5-2263fa8bd972","slug":"cottondale-fl","name":"Cottondale Area","lng":-85.401822,"lat":30.829126,"state_code":"FL","country_code":"US"},{"id":"b539d03d-37a6-464d-ac96-095e49e34d0e","slug":"washington-county-fl","name":"Washington County Area","lng":-85.630854,"lat":30.563856,"state_code":"FL","country_code":"US"},{"id":"31f06469-ab32-445c-8f13-5c5b8e7ec3e3","slug":"chipley-fl","name":"Chipley Area","lng":-85.53843,"lat":30.779539,"state_code":"FL","country_code":"US"},{"id":"1f83ea5f-ef5e-4cae-926e-089b6a19afd2","slug":"cartersville-ga","name":"Cartersville","lng":-84.708874,"lat":34.209242,"state_code":"GA","country_code":"US"},{"id":"acd0a9d5-fcee-4072-9168-fff6140f095c","slug":"emerson-ga","name":"Emerson","lng":-84.769919,"lat":34.157041,"state_code":"GA","country_code":"US"},{"id":"cb9e2849-4b0b-407c-a02f-c273fb0df40c","slug":"kingston-ga","name":"Kingston","lng":-84.946085,"lat":34.221566,"state_code":"GA","country_code":"US"},{"id":"087db5da-2dec-4fa2-b5e0-9e7cd071e1c8","slug":"tallapoosa-river-ga","name":"Tallapoosa River","lng":-85.105757,"lat":33.586162,"state_code":"GA","country_code":"US"},{"id":"13f8f7c9-2551-4f63-b827-da47854d05cf","slug":"carrollton-ga","name":"Carrollton","lng":-85.040011,"lat":33.586997,"state_code":"GA","country_code":"US"},{"id":"93cddffa-2817-4a95-8fd8-a26785ae0f0f","slug":"villa-rica-ga","name":"Villa Rica","lng":-84.919021,"lat":33.731081,"state_code":"GA","country_code":"US"},{"id":"b93e1dfe-efc7-4632-9344-695b0fa0f006","slug":"graysville-ga","name":"Graysville","lng":-85.117679,"lat":34.941851,"state_code":"GA","country_code":"US"},{"id":"0745502c-d4aa-44d1-b5a8-cdd2daba8888","slug":"gore-ga","name":"Gore","lng":-85.256391,"lat":34.548795,"state_code":"GA","country_code":"US"},{"id":"b4a7e1fa-1940-492b-bc05-1d7a5df16248","slug":"summerville-ga","name":"Summerville","lng":-85.31702,"lat":34.470213,"state_code":"GA","country_code":"US"},{"id":"4a4a502a-e7ba-499c-a95c-b6c3ffa743b2","slug":"state-fish-hatchery-ga","name":"State Fish Hatchery","lng":-85.414829,"lat":34.456985,"state_code":"GA","country_code":"US"},{"id":"7dde61c7-eb90-460a-818a-c3f05b3e0bc4","slug":"ball-ground-ga","name":"Ball Ground","lng":-84.398172,"lat":34.306315,"state_code":"GA","country_code":"US"},{"id":"0ec3c961-593e-4936-80c4-602f2774d6e3","slug":"sharp-mountain-ga","name":"Sharp Mountain","lng":-84.50134,"lat":34.437638,"state_code":"GA","country_code":"US"},{"id":"92bd1499-680b-4b63-b45f-58252efcc661","slug":"bluff-creek-ga","name":"Bluff Creek","lng":-84.455098,"lat":34.347224,"state_code":"GA","country_code":"US"},{"id":"0d6de938-03a7-49c9-93b7-89f956af7288","slug":"rising-fawn-ga","name":"Rising Fawn","lng":-85.540427,"lat":34.747279,"state_code":"GA","country_code":"US"},{"id":"26002d78-0f56-4549-abed-1da0c864a26d","slug":"stone-mountain-ga","name":"Stone Mountain","lng":-84.157142,"lat":33.799904,"state_code":"GA","country_code":"US"},{"id":"5eb05c42-da05-4f3b-9645-350f06afbcdc","slug":"lithonia-ga","name":"Lithonia","lng":-84.099633,"lat":33.729688,"state_code":"GA","country_code":"US"},{"id":"a7e39b94-68bc-4a75-b9b3-5cd8f4b8d422","slug":"arabia-mountain-ga","name":"Arabia Mountain","lng":-84.109927,"lat":33.686507,"state_code":"GA","country_code":"US"},{"id":"4f4219ac-6c50-4408-8205-1c45fe65dfa5","slug":"fannin-county-ga","name":"Fannin County","lng":-84.29896,"lat":34.89681,"state_code":"GA","country_code":"US"},{"id":"21a569cb-5c2e-444d-9e71-4be54fcb4cd9","slug":"coles-crossing-ga","name":"Cole’s Crossing","lng":-84.26486,"lat":34.945859,"state_code":"GA","country_code":"US"},{"id":"ce649143-3355-480b-9916-57775a4049c7","slug":"windy-ridge-mineral-bluff-ga","name":"Windy Ridge and Mineral Bluff","lng":-84.289658,"lat":34.925955,"state_code":"GA","country_code":"US"},{"id":"7c8ad8f0-c58a-45da-bda3-e18b7b4a4e66","slug":"rome-ga","name":"Rome","lng":-85.256722,"lat":34.267749,"state_code":"GA","country_code":"US"},{"id":"c9cc4bb8-d7dd-43f5-995f-9e604729a008","slug":"bremen-ga","name":"Bremen","lng":-85.215954,"lat":33.690624,"state_code":"GA","country_code":"US"},{"id":"0d6dc010-0059-43ce-90d1-09d08e6e5fd1","slug":"murray-county-ga","name":"Murray County","lng":-84.750293,"lat":34.793196,"state_code":"GA","country_code":"US"},{"id":"cb08e46b-6514-422b-9384-23ad2a275dce","slug":"fort-cahutta-mountain-ga","name":"Fort Mountain and Cahutta Mountain","lng":-84.713534,"lat":34.781927,"state_code":"GA","country_code":"US"},{"id":"5cb7ed91-ac85-48f9-80c0-ced824dbb341","slug":"fincher-bluff-ga","name":"Fincher Bluff","lng":-84.854588,"lat":34.720349,"state_code":"GA","country_code":"US"},{"id":"6c5ada05-1c92-437d-b118-d2d680675eb1","slug":"garnet-hill-ga","name":"Garnet Hill","lng":-84.798152,"lat":33.883495,"state_code":"GA","country_code":"US"},{"id":"11c484a3-1c42-4e09-b5de-8fb4b4c4617f","slug":"tate-ga","name":"Tate","lng":-84.36643,"lat":34.406901,"state_code":"GA","country_code":"US"},{"id":"29221265-93ed-43b6-a89e-3a22c0228396","slug":"tarr-creek-dalton-ga","name":"Tarr Creek near Dalton","lng":-84.989666,"lat":34.757099,"state_code":"GA","country_code":"US"},{"id":"59b27cf3-0c44-455d-8bb3-39ca2c76bee6","slug":"banks-county-ga","name":"Banks County","lng":-83.401708,"lat":34.294847,"state_code":"GA","country_code":"US"},{"id":"5be9249c-30f2-4c4c-a842-00c835a71ca5","slug":"maysville-ga","name":"Maysville","lng":-83.565706,"lat":34.247541,"state_code":"GA","country_code":"US"},{"id":"aac6474f-0ece-41f5-b771-56fde39b37fb","slug":"cumming-ga","name":"Cumming","lng":-84.157463,"lat":34.200729,"state_code":"GA","country_code":"US"},{"id":"1409fc8c-ccb2-4825-9451-66f8fc1f6dcb","slug":"oscarville-ga","name":"Oscarville","lng":-83.974618,"lat":34.250048,"state_code":"GA","country_code":"US"},{"id":"42bbad8a-0ef1-4c3b-953c-a5c5e7ced196","slug":"lavonia-ga","name":"Lavonia","lng":-83.102835,"lat":34.392746,"state_code":"GA","country_code":"US"},{"id":"0e529093-32e3-43eb-94b7-73ab2800fa6b","slug":"alec-mountain-ga","name":"Alec Mountain","lng":-83.596368,"lat":34.668915,"state_code":"GA","country_code":"US"},{"id":"4328261a-70e3-489f-b665-57e7153630a4","slug":"north-georgia-tech-ga","name":"North Georgia Technical College","lng":-83.528517,"lat":34.63514,"state_code":"GA","country_code":"US"},{"id":"6cea3662-0ff4-40bf-b37c-30004df44bd6","slug":"soquee-river-ga","name":"Soquee River","lng":-83.507123,"lat":34.644808,"state_code":"GA","country_code":"US"},{"id":"6fe1f2c5-cf69-43e9-8c88-ab492e3a4280","slug":"clarksville-ga","name":"Clarksville","lng":-83.562784,"lat":34.61385,"state_code":"GA","country_code":"US"},{"id":"4a482ec0-2932-4381-9408-1b110a4292d0","slug":"chattahoochee-ridge-ga","name":"Chattahoochee Ridge","lng":-83.879482,"lat":34.349848,"state_code":"GA","country_code":"US"},{"id":"ca9e6b2b-05f4-4f93-b6d9-50b2e5d5ca06","slug":"gainesville-ga","name":"Gainesville","lng":-83.887965,"lat":34.265,"state_code":"GA","country_code":"US"},{"id":"f9b17674-bba0-4699-b09a-429e237ec3b8","slug":"bowersville-ga","name":"Bowersville","lng":-83.083367,"lat":34.372508,"state_code":"GA","country_code":"US"},{"id":"c6e26309-4c85-44df-8f40-4298941b4bb9","slug":"baggs-branch-ga","name":"Baggs Branch","lng":-84.032257,"lat":34.439511,"state_code":"GA","country_code":"US"},{"id":"b8c9fe67-933f-430d-81f7-b54a281a766b","slug":"turkey-hill-ga","name":"Turkey Hill","lng":-83.987736,"lat":34.489753,"state_code":"GA","country_code":"US"},{"id":"f418a015-e46c-420a-99a5-d7d3af4521b1","slug":"barlow-cuts-ga","name":"Barlow Cuts","lng":-84.016655,"lat":34.498113,"state_code":"GA","country_code":"US"},{"id":"0973cbb4-b3c3-490a-8fbf-3b100560953a","slug":"laurel-creek-mine-ga","name":"Laurel Creek Mine","lng":-83.17403,"lat":34.947758,"state_code":"GA","country_code":"US"},{"id":"aebbd9f3-5a1e-4edb-942f-9c61853e1c56","slug":"tallulah-falls-ga","name":"Tallulah Falls","lng":-83.392985,"lat":34.744549,"state_code":"GA","country_code":"US"},{"id":"1de22ca8-64f5-4ef2-bdc3-62176fd6f914","slug":"hunter-knob-ga","name":"Hunter Knob","lng":-83.900547,"lat":34.971272,"state_code":"GA","country_code":"US"},{"id":"9567a6ac-2c0a-4e6a-b3e1-3d3758318ecd","slug":"brasstown-church-ga","name":"Brasstown Church","lng":-83.887644,"lat":34.98111,"state_code":"GA","country_code":"US"},{"id":"23abe1d9-1929-4c97-bd6a-8f5fe32c11ae","slug":"towns-county-ga","name":"Towns County","lng":-83.740879,"lat":34.918409,"state_code":"GA","country_code":"US"},{"id":"ca81682d-7c24-4d2b-a727-e293fd91f6dd","slug":"charlies-creek-ga","name":"Charlie’s Creek","lng":-83.586236,"lat":34.978333,"state_code":"GA","country_code":"US"},{"id":"a9c0948e-e646-4224-af59-f33f9e1cbe53","slug":"chatuge-lake-ga","name":"Chatuge Lake","lng":-83.815062,"lat":34.973714,"state_code":"GA","country_code":"US"},{"id":"789d218f-a10b-4b1c-906d-8fb04e9fccc5","slug":"elf-ga","name":"Elf","lng":-83.738146,"lat":35.026934,"state_code":"GA","country_code":"US"},{"id":"80ab8fad-30a0-4b79-ac80-404e8eb883c3","slug":"trap-rock-gap-ga","name":"Trap Rock Gap","lng":-83.877926,"lat":34.878698,"state_code":"GA","country_code":"US"},{"id":"dc927826-65cd-4431-aaa4-8ac9ce6147c6","slug":"gumlog-mountain-ga","name":"Gumlog Mountain","lng":-83.926317,"lat":34.940464,"state_code":"GA","country_code":"US"},{"id":"1cfc69fc-8ea5-422f-a934-5ab618ab55a3","slug":"jack-shoal-branch-ga","name":"Jack Branch & Shoal Branch Area","lng":-83.613089,"lat":34.958443,"state_code":"GA","country_code":"US"},{"id":"ac45cbf1-24e9-4532-8eae-aa8059781119","slug":"akin-mountain-ga","name":"Akin Mountain","lng":-84.029785,"lat":34.804777,"state_code":"GA","country_code":"US"},{"id":"9caf7b6a-a630-425d-81c8-625b97d8057e","slug":"white-county-ga","name":"White County","lng":-83.755821,"lat":34.631656,"state_code":"GA","country_code":"US"},{"id":"09d9ceda-dacc-491c-893d-407bfe823652","slug":"bean-creek-ga","name":"Bean Creek","lng":-83.690063,"lat":34.710847,"state_code":"GA","country_code":"US"},{"id":"c5fdb4d0-be0b-49be-88bf-9751612ad697","slug":"milledgeville-ga","name":"Milledgeville","lng":-83.224188,"lat":33.006923,"state_code":"GA","country_code":"US"},{"id":"0ada5ea1-2489-4471-b9e6-e97833d6e13a","slug":"macon-ga","name":"Macon","lng":-83.518928,"lat":32.924307,"state_code":"GA","country_code":"US"},{"id":"4bea7f29-38e8-4110-afc1-c3bd29a7cb3d","slug":"middle-ga-airport-ga","name":"Middle Georgia Regional Airport Area","lng":-83.653061,"lat":32.730208,"state_code":"GA","country_code":"US"},{"id":"3a049cb6-1c0d-466f-8a8b-90a406ab7ae6","slug":"hillsboro-ga","name":"Hillsboro","lng":-83.640897,"lat":33.179567,"state_code":"GA","country_code":"US"},{"id":"0d2b3d32-aacc-47c1-bffe-de27e3ecf56d","slug":"monticello-ga","name":"Monticello","lng":-83.719735,"lat":33.25352,"state_code":"GA","country_code":"US"},{"id":"4889c2b6-9acb-4785-8a77-9bb54fddab18","slug":"round-oak-ga","name":"Round Oak","lng":-83.632495,"lat":33.10581,"state_code":"GA","country_code":"US"},{"id":"40f1925f-68c6-4d9d-b0ef-6056ae61bff2","slug":"milner-ga","name":"Milner","lng":-84.204774,"lat":33.109076,"state_code":"GA","country_code":"US"},{"id":"902767e4-c47e-45f8-99b2-231cddc0da5e","slug":"warm-springs-ga","name":"Warm Springs","lng":-84.661525,"lat":32.88667,"state_code":"GA","country_code":"US"},{"id":"fddd3bd2-d72e-4103-b915-9c3a8e231c42","slug":"pine-mountain-valley-ga","name":"Pine Mountain Valley","lng":-84.809248,"lat":32.795508,"state_code":"GA","country_code":"US"},{"id":"58d264e0-772c-4aa2-93e0-b14a0d0a1959","slug":"culloden-ga","name":"Culloden","lng":-84.095016,"lat":32.922993,"state_code":"GA","country_code":"US"},{"id":"cc585071-562d-4e6a-a328-229c86caea15","slug":"chattahoochee-river-ga","name":"Chattahoochee River","lng":-84.996223,"lat":32.514026,"state_code":"GA","country_code":"US"},{"id":"1baef024-9a20-432a-9847-1ed501ae7ad3","slug":"bull-creek-ga","name":"Bull Creek","lng":-84.910263,"lat":32.482495,"state_code":"GA","country_code":"US"},{"id":"f51b8ad9-1d59-4f08-ae33-515b5cb4eb63","slug":"vaugh-ga","name":"Vaugh","lng":-84.395014,"lat":33.280887,"state_code":"GA","country_code":"US"},{"id":"933bd869-430f-4315-b981-d35a5616c733","slug":"hogg-mine-ga","name":"Hogg Mine","lng":-85.029754,"lat":32.991054,"state_code":"GA","country_code":"US"},{"id":"76444a4f-e571-465d-b29c-42d8b955c6bb","slug":"hurricane-creek-ga","name":"Hurricane Creek","lng":-84.450024,"lat":32.92637,"state_code":"GA","country_code":"US"},{"id":"e6bf6ce7-68d9-4dd7-8ebc-3b8b5be952a8","slug":"thomaston-ga","name":"Thomaston","lng":-84.327836,"lat":32.897423,"state_code":"GA","country_code":"US"},{"id":"bf6a0911-c677-4150-87a8-97114ff1b183","slug":"dolly-cherry-property-ga","name":"Dolly Cherry Property","lng":-84.280722,"lat":32.879247,"state_code":"GA","country_code":"US"},{"id":"238471a9-ead2-45f7-9b82-5fb888410db2","slug":"herron-mine-ga","name":"Herron Mine","lng":-84.139999,"lat":32.918057,"state_code":"GA","country_code":"US"},{"id":"5f881d2a-aa16-461e-8844-e3b8e1b7d861","slug":"lake-tchukolaho-ga","name":"Lake Tchukolaho","lng":-83.307432,"lat":32.910766,"state_code":"GA","country_code":"US"},{"id":"6f56a213-3836-4749-b348-e5563c5b0c6c","slug":"girard-ga","name":"Girard","lng":-81.646043,"lat":33.066263,"state_code":"GA","country_code":"US"},{"id":"40b90c4a-7108-4e14-9eb6-92ce40ce68d0","slug":"athens-ga","name":"Athens","lng":-83.37278,"lat":33.958114,"state_code":"GA","country_code":"US"},{"id":"30895015-1c00-4e58-9779-1711c84e3647","slug":"morrow-ga","name":"Morrow","lng":-84.346124,"lat":33.587011,"state_code":"GA","country_code":"US"},{"id":"3b8dba33-4cba-4a9f-88f0-ef3b68bc4f81","slug":"dewy-rose-ga","name":"Dewy Rose","lng":-82.958154,"lat":34.193798,"state_code":"GA","country_code":"US"},{"id":"b45d66d8-0038-417d-96d2-91b7fe247e76","slug":"elberton-ga","name":"Elberton","lng":-82.86325,"lat":34.243609,"state_code":"GA","country_code":"US"},{"id":"c12201a1-50bd-4027-a488-9f1195264139","slug":"autry-mill-ga","name":"Autry Mill Nature Preserve","lng":-84.233324,"lat":34.02016,"state_code":"GA","country_code":"US"},{"id":"ab0da2a1-0a0e-418c-83f8-4c6ff7434604","slug":"sparta-ga","name":"Sparta","lng":-82.995711,"lat":33.261067,"state_code":"GA","country_code":"US"},{"id":"f9bdaf4e-0ad6-419e-b5cd-3035dfe853e1","slug":"lake-sinclair-ga","name":"Lake Sinclair","lng":-83.226851,"lat":33.25768,"state_code":"GA","country_code":"US"},{"id":"a3c23f56-a0f3-41c2-8374-7b5ce8f25076","slug":"graves-mountain-ga","name":"Graves Mountain mine (paid location)","lng":-82.527474,"lat":33.741155,"state_code":"GA","country_code":"US"},{"id":"6b425546-676d-4b3d-8fda-eb3f71dc4005","slug":"hard-labor-creek-ga","name":"Hard Labor Creek","lng":-83.663086,"lat":33.73736,"state_code":"GA","country_code":"US"},{"id":"e1a64539-38db-4496-ba9a-ead45108beda","slug":"chattahoochee-county-ga","name":"Chattahoochee County","lng":-84.813399,"lat":32.312105,"state_code":"GA","country_code":"US"},{"id":"0044dc46-08cd-4cc0-8665-c2205aa57f07","slug":"columbus-ga","name":"Columbus","lng":-84.79725,"lat":32.437564,"state_code":"GA","country_code":"US"},{"id":"4f35dd48-49c8-40cc-b9fe-2462cec5df5a","slug":"cordele-ga","name":"Cordele","lng":-83.797479,"lat":31.97636,"state_code":"GA","country_code":"US"},{"id":"447d11bc-14db-4a64-8d16-5142f3cd806d","slug":"albany-ga","name":"Albany","lng":-84.143612,"lat":31.560143,"state_code":"GA","country_code":"US"},{"id":"895586d9-c1ce-4eaa-bd8f-f38f7336ea00","slug":"dodge-county-ga","name":"Dodge County","lng":-83.243961,"lat":32.307003,"state_code":"GA","country_code":"US"},{"id":"6d526333-e300-4353-96f5-c2658bbc523e","slug":"osierfield-ga","name":"Osierfield","lng":-83.120845,"lat":31.649429,"state_code":"GA","country_code":"US"},{"id":"c622b048-a3a1-4068-a70f-c97b1991f582","slug":"withlacoochee-river-ga","name":"Withlacoochee River","lng":-83.320078,"lat":30.6414,"state_code":"GA","country_code":"US"},{"id":"3c1eb857-4a39-46b9-8327-01cebbada29e","slug":"river-road-ga","name":"River Road","lng":-81.590492,"lat":33.039499,"state_code":"GA","country_code":"US"},{"id":"f3ff5257-4bb4-4b61-b681-3caa2d2c4e75","slug":"manele-bay-hi","name":"Manele Bay","lng":-156.892858,"lat":20.73788,"state_code":"HI","country_code":"US"},{"id":"7c29509d-0a50-4462-832e-5778a43f46f0","slug":"papakolea-green-sand-hi","name":"Papakolea Green Sand Beach & Other Beaches","lng":-155.669111,"lat":18.916808,"state_code":"HI","country_code":"US"},{"id":"9ee362ec-2852-4ea6-855e-227bf54391c9","slug":"olowalu-valley-hi","name":"Olowalu Valley","lng":-156.605554,"lat":20.826239,"state_code":"HI","country_code":"US"},{"id":"6760b588-8530-4f55-afc6-63d997d17c59","slug":"kailua-area-1-hi","name":"Kailua Area (North)","lng":-157.734412,"lat":21.457984,"state_code":"HI","country_code":"US"},{"id":"34a47df8-389c-4cce-b9d9-243adfe38b3a","slug":"kailua-area-2-hi","name":"Kailua Area (South)","lng":-157.719973,"lat":21.385203,"state_code":"HI","country_code":"US"},{"id":"c60103ca-d5a1-470a-8716-8b2f314d1e08","slug":"haleakala-np-hi","name":"Haleakala National Park","lng":-156.178469,"lat":20.708005,"state_code":"HI","country_code":"US"},{"id":"ed1ad270-6279-424a-b1fa-114bc01cbe02","slug":"wahiawa-hi","name":"Wahiawa","lng":-158.020759,"lat":21.491725,"state_code":"HI","country_code":"US"},{"id":"f471f82e-aa34-4070-a738-1beb2ef92611","slug":"pohakea-pass-hi","name":"Pohakea Pass","lng":-158.093644,"lat":21.433625,"state_code":"HI","country_code":"US"},{"id":"0860d5ec-483f-46fa-82fd-8ec60ab401b6","slug":"kapaa-quarry-hi","name":"Kapa’a Quarry (private area, obtain permission first)","lng":-157.774851,"lat":21.389346,"state_code":"HI","country_code":"US"},{"id":"c9c5656e-6e8c-4961-bbdd-feac57beb165","slug":"emerald-creek-id","name":"Emerald Creek","lng":-116.326537,"lat":47.06509,"state_code":"ID","country_code":"US"},{"id":"7098d213-b63e-4e71-b8c8-a55a63e9e8cf","slug":"north-fork-clearwater-id","name":"North Fork Clearwater River","lng":-115.26849,"lat":46.721755,"state_code":"ID","country_code":"US"},{"id":"75061408-46a0-4e0b-8b43-ebfcc3655168","slug":"mussellshell-id","name":"Mussellshell","lng":-115.743475,"lat":46.383777,"state_code":"ID","country_code":"US"},{"id":"07196400-2423-43fc-85c5-3e798dd31a39","slug":"salmon-river-agate-id","name":"Salmon River","lng":-115.787031,"lat":45.463244,"state_code":"ID","country_code":"US"},{"id":"2b986095-e5d5-40b3-9067-2fcb2a330833","slug":"ruby-meadows-id","name":"Ruby Meadows","lng":-115.881971,"lat":45.231254,"state_code":"ID","country_code":"US"},{"id":"830077fe-d4c6-40a4-a1b9-ecfe6139b11c","slug":"grouse-creek-corundum-id","name":"Grouse Creek","lng":-115.340828,"lat":45.48533,"state_code":"ID","country_code":"US"},{"id":"2b2c95a9-f0b7-41d7-9a9d-800f19c8b08b","slug":"salmon-river-gold-id","name":"Salmon River (near Riggins)","lng":-115.665639,"lat":45.433713,"state_code":"ID","country_code":"US"},{"id":"253ca52e-78af-48f7-b068-ebe22c9a3a09","slug":"clearwater-river-id","name":"Clearwater River","lng":-115.980266,"lat":46.109624,"state_code":"ID","country_code":"US"},{"id":"13b07e74-98b1-4277-8d71-55d7801fb013","slug":"orogrande-id","name":"Orogrande","lng":-115.558461,"lat":45.696832,"state_code":"ID","country_code":"US"},{"id":"43238ab6-77db-4e02-a9a7-eefa315e924d","slug":"riggins-id","name":"Riggins","lng":-116.307909,"lat":45.465226,"state_code":"ID","country_code":"US"},{"id":"d10fae16-9e3b-47a1-a0ae-1025f9966c0e","slug":"white-bird-id","name":"White Bird","lng":-116.322843,"lat":45.754899,"state_code":"ID","country_code":"US"},{"id":"324f7993-28ef-4e2f-bf0b-2cecdea3d645","slug":"bayview-id","name":"Bayview","lng":-116.475412,"lat":47.913814,"state_code":"ID","country_code":"US"},{"id":"38ac190c-9b84-4b07-a762-fd6736516195","slug":"hayden-lake-id","name":"Hayden Lake","lng":-116.65839,"lat":47.822979,"state_code":"ID","country_code":"US"},{"id":"b64fe550-75b6-4b04-b378-9e5af4d6147b","slug":"setters-id","name":"Setters","lng":-116.988263,"lat":47.468054,"state_code":"ID","country_code":"US"},{"id":"ce8903fe-cf36-47c0-96e7-ca58f9c66ab4","slug":"avery-id","name":"Avery","lng":-115.773583,"lat":47.150678,"state_code":"ID","country_code":"US"},{"id":"f5c93cb5-7556-47b2-a17c-c9a882428e13","slug":"bathtub-mountain-id","name":"Bathtub Mountain","lng":-115.5696,"lat":47.079552,"state_code":"ID","country_code":"US"},{"id":"8d927cb9-d3a7-4063-869a-b06d876fcba6","slug":"kingston-id","name":"Kingston","lng":-116.24309,"lat":47.556535,"state_code":"ID","country_code":"US"},{"id":"d3a7a828-7b3f-4538-a521-ddcefc4f2352","slug":"prichard-id","name":"Prichard","lng":-115.981065,"lat":47.655534,"state_code":"ID","country_code":"US"},{"id":"dee89106-2119-4c66-8439-cd03d989f8a4","slug":"shoshone-county-id","name":"Shoshone County","lng":-116.071111,"lat":47.502151,"state_code":"ID","country_code":"US"},{"id":"f672a93e-6294-4d93-9c95-982cb0795574","slug":"deadwood-gulch-id","name":"Deadwood Gulch","lng":-116.151013,"lat":47.537635,"state_code":"ID","country_code":"US"},{"id":"406aa944-d17b-4e5f-8678-ef9341cc9640","slug":"emerald-ruby-creeks-id","name":"Emerald and Ruby Creeks","lng":-116.326303,"lat":47.065312,"state_code":"ID","country_code":"US"},{"id":"cdffff44-c5df-4d1a-826a-fc011c777479","slug":"mica-mountain-id","name":"Mica Mountain","lng":-116.56673,"lat":46.903422,"state_code":"ID","country_code":"US"},{"id":"668de1bb-dde4-40e8-86d2-9cac0e7f7160","slug":"boulder-creek-id","name":"Boulder Creek","lng":-116.417297,"lat":46.732684,"state_code":"ID","country_code":"US"},{"id":"b733aa07-3eba-4a0d-9a49-7659d547b888","slug":"moscow-id","name":"Moscow","lng":-117.039487,"lat":46.792698,"state_code":"ID","country_code":"US"},{"id":"b15d234c-28fb-4325-9b78-563e8cd73524","slug":"general-area-clearwater-id","name":"General Area (Clearwater NF)","lng":-115.806465,"lat":46.627698,"state_code":"ID","country_code":"US"},{"id":"ef566fce-4c96-40d2-9772-622c364494ba","slug":"agatha-id","name":"Agatha","lng":-116.575406,"lat":46.527762,"state_code":"ID","country_code":"US"},{"id":"708e206f-43c5-4baf-a5e1-d2242108ccf8","slug":"lewiston-id","name":"Lewiston","lng":-116.94458,"lat":46.453239,"state_code":"ID","country_code":"US"},{"id":"f1f68217-b9fc-44a1-b331-f6e2a8ad3a22","slug":"snake-river-id","name":"Snake River","lng":-116.969138,"lat":46.265249,"state_code":"ID","country_code":"US"},{"id":"c759a511-2429-4b5e-b2e4-537d372d7f0c","slug":"orofino-creek-id","name":"Orofino Creek","lng":-115.836837,"lat":46.49613,"state_code":"ID","country_code":"US"},{"id":"14165cad-e995-4fad-844f-0c34a3674b19","slug":"rhodes-creek-id","name":"Rhodes Creek","lng":-115.76326,"lat":46.507439,"state_code":"ID","country_code":"US"},{"id":"e97d540b-6507-4903-a2bd-6cd734648eb3","slug":"clearwater-river-agate-id","name":"Clearwater River","lng":-116.951476,"lat":46.433522,"state_code":"ID","country_code":"US"},{"id":"0d10f012-48b2-4c67-b4f8-3e7675eb2392","slug":"tungsten-hill-mine-id","name":"Tungsten Hill Mine","lng":-116.275793,"lat":48.899637,"state_code":"ID","country_code":"US"},{"id":"c229c2a6-5c18-423a-84e0-f7c43f2357be","slug":"upper-priest-lake-id","name":"Upper Priest Lake","lng":-116.915548,"lat":48.799145,"state_code":"ID","country_code":"US"},{"id":"32115109-7667-46e0-b8dd-e56f36238f13","slug":"priest-lake-id","name":"Priest Lake","lng":-116.883687,"lat":48.630063,"state_code":"ID","country_code":"US"},{"id":"22a36f37-5d4c-4293-b44a-2947db2b2730","slug":"pack-river-id","name":"Pack River","lng":-116.577614,"lat":48.511324,"state_code":"ID","country_code":"US"},{"id":"29b4b00a-c46a-4310-8984-8368a2cf682a","slug":"alder-creek-id","name":"Alder Creek","lng":-116.603965,"lat":47.225432,"state_code":"ID","country_code":"US"},{"id":"836f6c60-f976-4818-806a-e4b12dd2df3a","slug":"east-fork-emerald-creek-id","name":"East Fork Emerald Creek","lng":-116.333132,"lat":47.005296,"state_code":"ID","country_code":"US"},{"id":"f5c8d274-fa7d-453e-ad26-4187bc18bb71","slug":"carpenter-creek-id","name":"Carpenter Creek","lng":-116.44035,"lat":47.055077,"state_code":"ID","country_code":"US"},{"id":"be8700fa-5db1-41cd-90bd-332859cfc306","slug":"american-river-id","name":"American River","lng":-115.415287,"lat":45.841169,"state_code":"ID","country_code":"US"},{"id":"75856cb0-b0f9-43f2-94c2-1c7c6dcbe7b2","slug":"conjecture-mine-id","name":"Conjecture Mine","lng":-116.431171,"lat":47.915419,"state_code":"ID","country_code":"US"},{"id":"e8df23ea-6e9f-4b82-af32-b2ae419f785c","slug":"purdue-canyon-creeks-id","name":"Purdue & Canyon Creeks","lng":-116.355432,"lat":46.899101,"state_code":"ID","country_code":"US"},{"id":"2051c788-83d5-4a12-8365-2504fec11b66","slug":"goat-mountain-blackdome-id","name":"Goat Mountain & Blackdome Peak","lng":-116.109535,"lat":48.19809,"state_code":"ID","country_code":"US"},{"id":"018d3263-028d-4f89-89a2-615a4c1e5703","slug":"burke-id","name":"Burke","lng":-115.824878,"lat":47.516724,"state_code":"ID","country_code":"US"},{"id":"47847b2c-cab8-4a65-a0e0-5a1128c0645f","slug":"ada-county-id","name":"Ada County","lng":-116.232558,"lat":43.384497,"state_code":"ID","country_code":"US"},{"id":"7bcf3b97-c7c6-4510-9ef7-93e222e29153","slug":"adams-county-id","name":"Adams County","lng":-116.638776,"lat":44.891814,"state_code":"ID","country_code":"US"},{"id":"316a6a43-37f0-48a5-b462-5a93dad2ac09","slug":"sturgill-creek-id","name":"Sturgill Creek","lng":-117.046364,"lat":44.663957,"state_code":"ID","country_code":"US"},{"id":"18b64378-b7e5-43ad-8c9d-3283cd47ebd1","slug":"cuprum-id","name":"Cuprum","lng":-116.672959,"lat":45.10301,"state_code":"ID","country_code":"US"},{"id":"deb83af2-a14b-46f1-92e8-6b4397ddb97c","slug":"mesa-id","name":"Mesa","lng":-116.459089,"lat":44.63034,"state_code":"ID","country_code":"US"},{"id":"1456176c-e399-4ab1-b61f-7dcf98e3f5f7","slug":"bear-valley-id","name":"Bear Valley","lng":-115.274673,"lat":44.427553,"state_code":"ID","country_code":"US"},{"id":"9a7e5c79-cf61-46b4-a8b7-efefa6b7f62d","slug":"little-goose-creek-id","name":"Little Goose Creek Canyon","lng":-116.182819,"lat":44.966491,"state_code":"ID","country_code":"US"},{"id":"8beb3dea-beab-4c3e-abb5-7fa9da5edeb0","slug":"new-meadows-id","name":"New Meadows","lng":-116.310664,"lat":44.92112,"state_code":"ID","country_code":"US"},{"id":"242ee152-9e16-4984-b54a-23eefdd1ab52","slug":"banner-silver-mines-id","name":"Banner Silver Mines","lng":-115.532669,"lat":44.018861,"state_code":"ID","country_code":"US"},{"id":"15d9e1fd-9949-42a3-b51c-b497eb3f6b89","slug":"garden-valley-id","name":"Garden Valley","lng":-115.953985,"lat":44.091618,"state_code":"ID","country_code":"US"},{"id":"c933b616-1919-4c31-8a62-ee015b39679b","slug":"idaho-city-id","name":"Idaho City","lng":-115.829558,"lat":43.836809,"state_code":"ID","country_code":"US"},{"id":"c2ea545e-44a7-4333-875e-e113f2352397","slug":"stanley-id","name":"Stanley","lng":-114.949185,"lat":44.223399,"state_code":"ID","country_code":"US"},{"id":"3a21ba03-75b1-4e76-8302-5371ab1458ce","slug":"salmon-river-stanley-id","name":"Salmon River (Stanley area)","lng":-114.901836,"lat":44.240559,"state_code":"ID","country_code":"US"},{"id":"9302fe1a-4cc3-4990-8311-39a1ba3e8084","slug":"boise-river-id","name":"Boise River","lng":-115.310453,"lat":43.500034,"state_code":"ID","country_code":"US"},{"id":"dc7d69f4-8448-4165-a514-f0ac5691f09f","slug":"mountain-home-id","name":"Mountain Home","lng":-116.7339,"lat":43.014706,"state_code":"ID","country_code":"US"},{"id":"29a4caf1-e9d3-46cf-b40b-c4d757902637","slug":"sweet-id","name":"Sweet","lng":-116.310213,"lat":44.033515,"state_code":"ID","country_code":"US"},